$GPGGA,122719.000,3425.268,N,08407.146,W,1,12,1.0,0.0,M,0.0,M,,*76
$GPGSA,A,3,01,02,03,04,05,06,07,08,09,10,11,12,1.0,1.0,1.0*30
$GPRMC,122719.000,A,3425.268,N,08407.146,W,000.0,095.2,260822,000.0,W*60
$GPGGA,000000.000,3425.267,N,08407.135,W,1,12,1.0,0.0,M,0.0,M,,*73
$GPGSA,A,3,01,02,03,04,05,06,07,08,09,10,11,12,1.0,1.0,1.0*30
$GPRMC,000000.000,A,3425.267,N,08407.135,W,000.0,073.6,270822,000.0,W*68
$GPGGA,113241.000,3425.277,N,08407.101,W,1,12,1.0,0.0,M,0.0,M,,*71
$GPGSA,A,3,01,02,03,04,05,06,07,08,09,10,11,12,1.0,1.0,1.0*30
$GPRMC,113241.000,A,3425.277,N,08407.101,W,000.0,091.2,270822,000.0,W*62
$GPGGA,230522.000,3425.275,N,08407.002,W,1,12,1.0,0.0,M,0.0,M,,*71
$GPGSA,A,3,01,02,03,04,05,06,07,08,09,10,11,12,1.0,1.0,1.0*30
$GPRMC,230522.000,A,3425.275,N,08407.002,W,000.0,142.2,270822,000.0,W*6D
$GPGGA,103803.000,3425.266,N,08406.995,W,1,12,1.0,0.0,M,0.0,M,,*78
$GPGSA,A,3,01,02,03,04,05,06,07,08,09,10,11,12,1.0,1.0,1.0*30
$GPRMC,103803.000,A,3425.266,N,08406.995,W,000.0,120.4,280822,000.0,W*69
$GPGGA,221044.000,3425.235,N,08406.942,W,1,12,1.0,0.0,M,0.0,M,,*7C
$GPGSA,A,3,01,02,03,04,05,06,07,08,09,10,11,12,1.0,1.0,1.0*30
$GPRMC,221044.000,A,3425.235,N,08406.942,W,000.0,123.0,280822,000.0,W*6A
$GPGGA,094325.000,3425.211,N,08406.905,W,1,12,1.0,0.0,M,0.0,M,,*71
$GPGSA,A,3,01,02,03,04,05,06,07,08,09,10,11,12,1.0,1.0,1.0*30
$GPRMC,094325.000,A,3425.211,N,08406.905,W,000.0,128.7,290822,000.0,W*6A
$GPGGA,211606.000,3425.199,N,08406.890,W,1,12,1.0,0.0,M,0.0,M,,*74
$GPGSA,A,3,01,02,03,04,05,06,07,08,09,10,11,12,1.0,1.0,1.0*30
$GPRMC,211606.000,A,3425.199,N,08406.890,W,000.0,138.4,290822,000.0,W*6D
$GPGGA,084847.000,3425.181,N,08406.874,W,1,12,1.0,0.0,M,0.0,M,,*72
$GPGSA,A,3,01,02,03,04,05,06,07,08,09,10,11,12,1.0,1.0,1.0*30
$GPRMC,084847.000,A,3425.181,N,08406.874,W,000.0,148.3,300822,000.0,W*63
$GPGGA,202128.000,3425.160,N,08406.861,W,1,12,1.0,0.0,M,0.0,M,,*75
$GPGSA,A,3,01,02,03,04,05,06,07,08,09,10,11,12,1.0,1.0,1.0*30
$GPRMC,202128.000,A,3425.160,N,08406.861,W,000.0,157.3,300822,000.0,W*6A
$GPGGA,075409.000,3425.129,N,08406.848,W,1,12,1.0,0.0,M,0.0,M,,*77
$GPGSA,A,3,01,02,03,04,05,06,07,08,09,10,11,12,1.0,1.0,1.0*30
$GPRMC,075409.000,A,3425.129,N,08406.848,W,000.0,160.9,310822,000.0,W*67
$GPGGA,192650.000,3425.080,N,08406.831,W,1,12,1.0,0.0,M,0.0,M,,*7D
$GPGSA,A,3,01,02,03,04,05,06,07,08,09,10,11,12,1.0,1.0,1.0*30
$GPRMC,192650.000,A,3425.080,N,08406.831,W,000.0,164.5,310822,000.0,W*65
$GPGGA,065931.000,3425.062,N,08406.826,W,1,12,1.0,0.0,M,0.0,M,,*76
$GPGSA,A,3,01,02,03,04,05,06,07,08,09,10,11,12,1.0,1.0,1.0*30
$GPRMC,065931.000,A,3425.062,N,08406.826,W,000.0,159.6,010922,000.0,W*61
$GPGGA,183212.000,3424.987,N,08406.798,W,1,12,1.0,0.0,M,0.0,M,,*7C
$GPGSA,A,3,01,02,03,04,05,06,07,08,09,10,11,12,1.0,1.0,1.0*30
$GPRMC,183212.000,A,3424.987,N,08406.798,W,000.0,152.6,010922,000.0,W*60
$GPGGA,060453.000,3424.962,N,08406.785,W,1,12,1.0,0.0,M,0.0,M,,*74
$GPGSA,A,3,01,02,03,04,05,06,07,08,09,10,11,12,1.0,1.0,1.0*30
$GPRMC,060453.000,A,3424.962,N,08406.785,W,000.0,144.7,020922,000.0,W*6D
$GPGGA,173734.000,3424.938,N,08406.768,W,1,12,1.0,0.0,M,0.0,M,,*79
$GPGSA,A,3,01,02,03,04,05,06,07,08,09,10,11,12,1.0,1.0,1.0*30
$GPRMC,173734.000,A,3424.938,N,08406.768,W,000.0,130.8,020922,000.0,W*6C
$GPGGA,051015.000,3424.907,N,08406.732,W,1,12,1.0,0.0,M,0.0,M,,*7F
$GPGSA,A,3,01,02,03,04,05,06,07,08,09,10,11,12,1.0,1.0,1.0*30
$GPRMC,051015.000,A,3424.907,N,08406.732,W,000.0,126.4,030922,000.0,W*60
$GPGGA,164256.000,3424.893,N,08406.713,W,1,12,1.0,0.0,M,0.0,M,,*72
$GPGSA,A,3,01,02,03,04,05,06,07,08,09,10,11,12,1.0,1.0,1.0*30
$GPRMC,164256.000,A,3424.893,N,08406.713,W,000.0,122.1,030922,000.0,W*6C
$GPGGA,041537.000,3424.831,N,08406.614,W,1,12,1.0,0.0,M,0.0,M,,*7A
$GPGSA,A,3,01,02,03,04,05,06,07,08,09,10,11,12,1.0,1.0,1.0*30
$GPRMC,041537.000,A,3424.831,N,08406.614,W,000.0,122.1,040922,000.0,W*63
$GPGGA,154818.000,3424.754,N,08406.491,W,1,12,1.0,0.0,M,0.0,M,,*7C
$GPGSA,A,3,01,02,03,04,05,06,07,08,09,10,11,12,1.0,1.0,1.0*30
$GPRMC,154818.000,A,3424.754,N,08406.491,W,000.0,122.1,040922,000.0,W*65
$GPGGA,032059.000,3424.685,N,08406.381,W,1,12,1.0,0.0,M,0.0,M,,*7B
$GPGSA,A,3,01,02,03,04,05,06,07,08,09,10,11,12,1.0,1.0,1.0*30
$GPRMC,032059.000,A,3424.685,N,08406.381,W,000.0,123.5,050922,000.0,W*66
$GPGGA,145340.000,3424.652,N,08406.331,W,1,12,1.0,0.0,M,0.0,M,,*70
$GPGSA,A,3,01,02,03,04,05,06,07,08,09,10,11,12,1.0,1.0,1.0*30
$GPRMC,145340.000,A,3424.652,N,08406.331,W,000.0,124.2,050922,000.0,W*6D
$GPGGA,022621.000,3424.633,N,08406.303,W,1,12,1.0,0.0,M,0.0,M,,*74
$GPGSA,A,3,01,02,03,04,05,06,07,08,09,10,11,12,1.0,1.0,1.0*30
$GPRMC,022621.000,A,3424.633,N,08406.303,W,000.0,131.7,060922,000.0,W*6B
$GPGGA,135902.000,3424.625,N,08406.294,W,1,12,1.0,0.0,M,0.0,M,,*75
$GPGSA,A,3,01,02,03,04,05,06,07,08,09,10,11,12,1.0,1.0,1.0*30
$GPRMC,135902.000,A,3424.625,N,08406.294,W,000.0,138.4,060922,000.0,W*60
$GPGGA,013143.000,3424.616,N,08406.286,W,1,12,1.0,0.0,M,0.0,M,,*7E
$GPGSA,A,3,01,02,03,04,05,06,07,08,09,10,11,12,1.0,1.0,1.0*30
$GPRMC,013143.000,A,3424.616,N,08406.286,W,000.0,146.4,070922,000.0,W*63
$GPGGA,130424.000,3424.604,N,08406.278,W,1,12,1.0,0.0,M,0.0,M,,*78
$GPGSA,A,3,01,02,03,04,05,06,07,08,09,10,11,12,1.0,1.0,1.0*30
$GPRMC,130424.000,A,3424.604,N,08406.278,W,000.0,151.1,070922,000.0,W*66
$GPGGA,003705.000,3424.548,N,08406.247,W,1,12,1.0,0.0,M,0.0,M,,*7E
$GPGSA,A,3,01,02,03,04,05,06,07,08,09,10,11,12,1.0,1.0,1.0*30
$GPRMC,003705.000,A,3424.548,N,08406.247,W,000.0,141.1,080922,000.0,W*6E
$GPGGA,120946.000,3424.527,N,08406.230,W,1,12,1.0,0.0,M,0.0,M,,*7E
$GPGSA,A,3,01,02,03,04,05,06,07,08,09,10,11,12,1.0,1.0,1.0*30
$GPRMC,120946.000,A,3424.527,N,08406.230,W,000.0,128.5,080922,000.0,W*65
$GPGGA,234227.000,3424.461,N,08406.147,W,1,12,1.0,0.0,M,0.0,M,,*74
$GPGSA,A,3,01,02,03,04,05,06,07,08,09,10,11,12,1.0,1.0,1.0*30
$GPRMC,234227.000,A,3424.461,N,08406.147,W,000.0,131.8,080922,000.0,W*6A
$GPGGA,111508.000,3424.436,N,08406.119,W,1,12,1.0,0.0,M,0.0,M,,*73
$GPGSA,A,3,01,02,03,04,05,06,07,08,09,10,11,12,1.0,1.0,1.0*30
$GPRMC,111508.000,A,3424.436,N,08406.119,W,000.0,137.5,090922,000.0,W*67
$GPGGA,224749.000,3424.424,N,08406.108,W,1,12,1.0,0.0,M,0.0,M,,*72
$GPGSA,A,3,01,02,03,04,05,06,07,08,09,10,11,12,1.0,1.0,1.0*30
$GPRMC,224749.000,A,3424.424,N,08406.108,W,000.0,145.1,090922,000.0,W*67
$GPGGA,102030.000,3424.414,N,08406.101,W,1,12,1.0,0.0,M,0.0,M,,*76
$GPGSA,A,3,01,02,03,04,05,06,07,08,09,10,11,12,1.0,1.0,1.0*30
$GPRMC,102030.000,A,3424.414,N,08406.101,W,000.0,149.1,100922,000.0,W*67
$GPGGA,215311.000,3424.374,N,08406.077,W,1,12,1.0,0.0,M,0.0,M,,*72
$GPGSA,A,3,01,02,03,04,05,06,07,08,09,10,11,12,1.0,1.0,1.0*30
$GPRMC,215311.000,A,3424.374,N,08406.077,W,000.0,148.4,100922,000.0,W*67
$GPGGA,092552.000,3424.361,N,08406.069,W,1,12,1.0,0.0,M,0.0,M,,*75
$GPGSA,A,3,01,02,03,04,05,06,07,08,09,10,11,12,1.0,1.0,1.0*30
$GPRMC,092552.000,A,3424.361,N,08406.069,W,000.0,137.8,110922,000.0,W*65
$GPGGA,205833.000,3424.350,N,08406.059,W,1,12,1.0,0.0,M,0.0,M,,*72
$GPGSA,A,3,01,02,03,04,05,06,07,08,09,10,11,12,1.0,1.0,1.0*30
$GPRMC,205833.000,A,3424.350,N,08406.059,W,000.0,130.7,110922,000.0,W*6A
$GPGGA,083114.000,3424.338,N,08406.045,W,1,12,1.0,0.0,M,0.0,M,,*71
$GPGSA,A,3,01,02,03,04,05,06,07,08,09,10,11,12,1.0,1.0,1.0*30
$GPRMC,083114.000,A,3424.338,N,08406.045,W,000.0,127.4,120922,000.0,W*6F
$GPGGA,200355.000,3424.267,N,08405.952,W,1,12,1.0,0.0,M,0.0,M,,*78
$GPGSA,A,3,01,02,03,04,05,06,07,08,09,10,11,12,1.0,1.0,1.0*30
$GPRMC,200355.000,A,3424.267,N,08405.952,W,000.0,132.3,120922,000.0,W*65
$GPGGA,073636.000,3424.257,N,08405.941,W,1,12,1.0,0.0,M,0.0,M,,*7F
$GPGSA,A,3,01,02,03,04,05,06,07,08,09,10,11,12,1.0,1.0,1.0*30
$GPRMC,073636.000,A,3424.257,N,08405.941,W,000.0,137.0,130922,000.0,W*65
$GPGGA,190917.000,3424.242,N,08405.927,W,1,12,1.0,0.0,M,0.0,M,,*7B
$GPGSA,A,3,01,02,03,04,05,06,07,08,09,10,11,12,1.0,1.0,1.0*30
$GPRMC,190917.000,A,3424.242,N,08405.927,W,000.0,147.6,130922,000.0,W*60
$GPGGA,064158.000,3424.220,N,08405.913,W,1,12,1.0,0.0,M,0.0,M,,*71
$GPGSA,A,3,01,02,03,04,05,06,07,08,09,10,11,12,1.0,1.0,1.0*30
$GPRMC,064158.000,A,3424.220,N,08405.913,W,000.0,155.0,140922,000.0,W*68
$GPGGA,181439.000,3424.083,N,08405.849,W,1,12,1.0,0.0,M,0.0,M,,*7C
$GPGSA,A,3,01,02,03,04,05,06,07,08,09,10,11,12,1.0,1.0,1.0*30
$GPRMC,181439.000,A,3424.083,N,08405.849,W,000.0,156.8,140922,000.0,W*6E
$GPGGA,054720.000,3424.062,N,08405.840,W,1,12,1.0,0.0,M,0.0,M,,*78
$GPGSA,A,3,01,02,03,04,05,06,07,08,09,10,11,12,1.0,1.0,1.0*30
$GPRMC,054720.000,A,3424.062,N,08405.840,W,000.0,164.9,150922,000.0,W*6B
$GPGGA,172001.000,3423.999,N,08405.823,W,1,12,1.0,0.0,M,0.0,M,,*76
$GPGSA,A,3,01,02,03,04,05,06,07,08,09,10,11,12,1.0,1.0,1.0*30
$GPRMC,172001.000,A,3423.999,N,08405.823,W,000.0,158.7,150922,000.0,W*64
$GPGGA,045242.000,3423.976,N,08405.814,W,1,12,1.0,0.0,M,0.0,M,,*73
$GPGSA,A,3,01,02,03,04,05,06,07,08,09,10,11,12,1.0,1.0,1.0*30
$GPRMC,045242.000,A,3423.976,N,08405.814,W,000.0,151.7,160922,000.0,W*6B
$GPGGA,162523.000,3423.963,N,08405.807,W,1,12,1.0,0.0,M,0.0,M,,*71
$GPGSA,A,3,01,02,03,04,05,06,07,08,09,10,11,12,1.0,1.0,1.0*30
$GPRMC,162523.000,A,3423.963,N,08405.807,W,000.0,139.4,160922,000.0,W*64
$GPGGA,035804.000,3423.956,N,08405.801,W,1,12,1.0,0.0,M,0.0,M,,*7A
$GPGSA,A,3,01,02,03,04,05,06,07,08,09,10,11,12,1.0,1.0,1.0*30
$GPRMC,035804.000,A,3423.956,N,08405.801,W,000.0,131.7,170922,000.0,W*65
$GPGGA,153045.000,3423.948,N,08405.792,W,1,12,1.0,0.0,M,0.0,M,,*7C
$GPGSA,A,3,01,02,03,04,05,06,07,08,09,10,11,12,1.0,1.0,1.0*30
$GPRMC,153045.000,A,3423.948,N,08405.792,W,000.0,126.9,170922,000.0,W*6B
$GPGGA,030326.000,3423.939,N,08405.780,W,1,12,1.0,0.0,M,0.0,M,,*7B
$GPGSA,A,3,01,02,03,04,05,06,07,08,09,10,11,12,1.0,1.0,1.0*30
$GPRMC,030326.000,A,3423.939,N,08405.780,W,000.0,120.1,180922,000.0,W*6D
$GPGGA,143607.000,3423.928,N,08405.761,W,1,12,1.0,0.0,M,0.0,M,,*77
$GPGSA,A,3,01,02,03,04,05,06,07,08,09,10,11,12,1.0,1.0,1.0*30
$GPRMC,143607.000,A,3423.928,N,08405.761,W,000.0,117.8,180922,000.0,W*6C
$GPGGA,020848.000,3423.899,N,08405.706,W,1,12,1.0,0.0,M,0.0,M,,*7C
$GPGSA,A,3,01,02,03,04,05,06,07,08,09,10,11,12,1.0,1.0,1.0*30
$GPRMC,020848.000,A,3423.899,N,08405.706,W,000.0,122.8,190922,000.0,W*60
$GPGGA,134129.000,3423.890,N,08405.692,W,1,12,1.0,0.0,M,0.0,M,,*73
$GPGSA,A,3,01,02,03,04,05,06,07,08,09,10,11,12,1.0,1.0,1.0*30
$GPRMC,134129.000,A,3423.890,N,08405.692,W,000.0,126.9,190922,000.0,W*6A
$GPGGA,011410.000,3423.881,N,08405.680,W,1,12,1.0,0.0,M,0.0,M,,*79
$GPGSA,A,3,01,02,03,04,05,06,07,08,09,10,11,12,1.0,1.0,1.0*30
$GPRMC,011410.000,A,3423.881,N,08405.680,W,000.0,133.3,200922,000.0,W*64
$GPGGA,124651.000,3423.833,N,08405.629,W,1,12,1.0,0.0,M,0.0,M,,*73
$GPGSA,A,3,01,02,03,04,05,06,07,08,09,10,11,12,1.0,1.0,1.0*30
$GPRMC,124651.000,A,3423.833,N,08405.629,W,000.0,132.6,200922,000.0,W*6A
$GPGGA,001932.000,3423.822,N,08405.617,W,1,12,1.0,0.0,M,0.0,M,,*72
$GPGSA,A,3,01,02,03,04,05,06,07,08,09,10,11,12,1.0,1.0,1.0*30
$GPRMC,001932.000,A,3423.822,N,08405.617,W,000.0,124.6,210922,000.0,W*6D
$GPGGA,115213.000,3423.811,N,08405.601,W,1,12,1.0,0.0,M,0.0,M,,*79
$GPGSA,A,3,01,02,03,04,05,06,07,08,09,10,11,12,1.0,1.0,1.0*30
$GPRMC,115213.000,A,3423.811,N,08405.601,W,000.0,119.1,210922,000.0,W*6F
$GPGGA,232454.000,3423.801,N,08405.583,W,1,12,1.0,0.0,M,0.0,M,,*72
$GPGSA,A,3,01,02,03,04,05,06,07,08,09,10,11,12,1.0,1.0,1.0*30
$GPRMC,232454.000,A,3423.801,N,08405.583,W,000.0,112.4,210922,000.0,W*6A
$GPGGA,105735.000,3423.787,N,08405.549,W,1,12,1.0,0.0,M,0.0,M,,*76
$GPGSA,A,3,01,02,03,04,05,06,07,08,09,10,11,12,1.0,1.0,1.0*30
$GPRMC,105735.000,A,3423.787,N,08405.549,W,000.0,107.1,220922,000.0,W*6C
$GPGGA,223016.000,3423.771,N,08405.497,W,1,12,1.0,0.0,M,0.0,M,,*7C
$GPGSA,A,3,01,02,03,04,05,06,07,08,09,10,11,12,1.0,1.0,1.0*30
$GPRMC,223016.000,A,3423.771,N,08405.497,W,000.0,111.0,220922,000.0,W*60
$GPGGA,100257.000,3423.758,N,08405.463,W,1,12,1.0,0.0,M,0.0,M,,*79
$GPGSA,A,3,01,02,03,04,05,06,07,08,09,10,11,12,1.0,1.0,1.0*30
$GPRMC,100257.000,A,3423.758,N,08405.463,W,000.0,120.5,230922,000.0,W*63
$GPGGA,213538.000,3423.748,N,08405.446,W,1,12,1.0,0.0,M,0.0,M,,*70
$GPGSA,A,3,01,02,03,04,05,06,07,08,09,10,11,12,1.0,1.0,1.0*30
$GPRMC,213538.000,A,3423.748,N,08405.446,W,000.0,122.5,230922,000.0,W*68
$GPGGA,090819.000,3423.741,N,08405.435,W,1,12,1.0,0.0,M,0.0,M,,*7A
$GPGSA,A,3,01,02,03,04,05,06,07,08,09,10,11,12,1.0,1.0,1.0*30
$GPRMC,090819.000,A,3423.741,N,08405.435,W,000.0,130.7,240922,000.0,W*64
$GPGGA,204100.000,3423.729,N,08405.421,W,1,12,1.0,0.0,M,0.0,M,,*7F
$GPGSA,A,3,01,02,03,04,05,06,07,08,09,10,11,12,1.0,1.0,1.0*30
$GPRMC,204100.000,A,3423.729,N,08405.421,W,000.0,135.1,240922,000.0,W*62
$GPGGA,081341.000,3423.719,N,08405.411,W,1,12,1.0,0.0,M,0.0,M,,*77
$GPGSA,A,3,01,02,03,04,05,06,07,08,09,10,11,12,1.0,1.0,1.0*30
$GPRMC,081341.000,A,3423.719,N,08405.411,W,000.0,145.5,250922,000.0,W*68
$GPGGA,194622.000,3423.703,N,08405.400,W,1,12,1.0,0.0,M,0.0,M,,*79
$GPGSA,A,3,01,02,03,04,05,06,07,08,09,10,11,12,1.0,1.0,1.0*30
$GPRMC,194622.000,A,3423.703,N,08405.400,W,000.0,149.1,250922,000.0,W*6E
$GPGGA,071903.000,3423.678,N,08405.385,W,1,12,1.0,0.0,M,0.0,M,,*78
$GPGSA,A,3,01,02,03,04,05,06,07,08,09,10,11,12,1.0,1.0,1.0*30
$GPRMC,071903.000,A,3423.678,N,08405.385,W,000.0,151.3,260922,000.0,W*67
$GPGGA,185144.000,3423.607,N,08405.346,W,1,12,1.0,0.0,M,0.0,M,,*7E
$GPGSA,A,3,01,02,03,04,05,06,07,08,09,10,11,12,1.0,1.0,1.0*30
$GPRMC,185144.000,A,3423.607,N,08405.346,W,000.0,145.8,260922,000.0,W*6F
$GPGGA,062425.000,3423.582,N,08405.329,W,1,12,1.0,0.0,M,0.0,M,,*73
$GPGSA,A,3,01,02,03,04,05,06,07,08,09,10,11,12,1.0,1.0,1.0*30
$GPRMC,062425.000,A,3423.582,N,08405.329,W,000.0,135.1,270922,000.0,W*6D
$GPGGA,175706.000,3423.572,N,08405.319,W,1,12,1.0,0.0,M,0.0,M,,*7A
$GPGSA,A,3,01,02,03,04,05,06,07,08,09,10,11,12,1.0,1.0,1.0*30
$GPRMC,175706.000,A,3423.572,N,08405.319,W,000.0,135.1,270922,000.0,W*64
$GPGGA,052947.000,3423.563,N,08405.310,W,1,12,1.0,0.0,M,0.0,M,,*7C
$GPGSA,A,3,01,02,03,04,05,06,07,08,09,10,11,12,1.0,1.0,1.0*30
$GPRMC,052947.000,A,3423.563,N,08405.310,W,000.0,126.1,280922,000.0,W*6F
$GPGGA,170228.000,3423.555,N,08405.299,W,1,12,1.0,0.0,M,0.0,M,,*7A
$GPGSA,A,3,01,02,03,04,05,06,07,08,09,10,11,12,1.0,1.0,1.0*30
$GPRMC,170228.000,A,3423.555,N,08405.299,W,000.0,120.3,280922,000.0,W*6D
$GPGGA,043509.000,3423.548,N,08405.287,W,1,12,1.0,0.0,M,0.0,M,,*7C
$GPGSA,A,3,01,02,03,04,05,06,07,08,09,10,11,12,1.0,1.0,1.0*30
$GPRMC,043509.000,A,3423.548,N,08405.287,W,000.0,115.1,290922,000.0,W*6E
$GPGGA,160750.000,3423.541,N,08405.272,W,1,12,1.0,0.0,M,0.0,M,,*71
$GPGSA,A,3,01,02,03,04,05,06,07,08,09,10,11,12,1.0,1.0,1.0*30
$GPRMC,160750.000,A,3423.541,N,08405.272,W,000.0,109.7,290922,000.0,W*68
$GPGGA,034031.000,3423.536,N,08405.258,W,1,12,1.0,0.0,M,0.0,M,,*79
$GPGSA,A,3,01,02,03,04,05,06,07,08,09,10,11,12,1.0,1.0,1.0*30
$GPRMC,034031.000,A,3423.536,N,08405.258,W,000.0,102.1,300922,000.0,W*65
$GPGGA,151312.000,3423.533,N,08405.244,W,1,12,1.0,0.0,M,0.0,M,,*71
$GPGSA,A,3,01,02,03,04,05,06,07,08,09,10,11,12,1.0,1.0,1.0*30
$GPRMC,151312.000,A,3423.533,N,08405.244,W,000.0,097.3,300922,000.0,W*62
$GPGGA,024553.000,3423.528,N,08405.205,W,1,12,1.0,0.0,M,0.0,M,,*7E
$GPGSA,A,3,01,02,03,04,05,06,07,08,09,10,11,12,1.0,1.0,1.0*30
$GPRMC,024553.000,A,3423.528,N,08405.205,W,000.0,096.1,011022,000.0,W*64
$GPGGA,141834.000,3423.523,N,08405.158,W,1,12,1.0,0.0,M,0.0,M,,*70
$GPGSA,A,3,01,02,03,04,05,06,07,08,09,10,11,12,1.0,1.0,1.0*30
$GPRMC,141834.000,A,3423.523,N,08405.158,W,000.0,100.2,011022,000.0,W*67
$GPGGA,015115.000,3423.516,N,08405.119,W,1,12,1.0,0.0,M,0.0,M,,*79
$GPGSA,A,3,01,02,03,04,05,06,07,08,09,10,11,12,1.0,1.0,1.0*30
$GPRMC,015115.000,A,3423.516,N,08405.119,W,000.0,108.0,021022,000.0,W*67
$GPGGA,132356.000,3423.505,N,08405.085,W,1,12,1.0,0.0,M,0.0,M,,*7E
$GPGSA,A,3,01,02,03,04,05,06,07,08,09,10,11,12,1.0,1.0,1.0*30
$GPRMC,132356.000,A,3423.505,N,08405.085,W,000.0,114.8,021022,000.0,W*65
$GPGGA,005637.000,3423.493,N,08405.059,W,1,12,1.0,0.0,M,0.0,M,,*76
$GPGSA,A,3,01,02,03,04,05,06,07,08,09,10,11,12,1.0,1.0,1.0*30
$GPRMC,005637.000,A,3423.493,N,08405.059,W,000.0,118.9,031022,000.0,W*61
$GPGGA,122918.000,3423.482,N,08405.039,W,1,12,1.0,0.0,M,0.0,M,,*76
$GPGSA,A,3,01,02,03,04,05,06,07,08,09,10,11,12,1.0,1.0,1.0*30
$GPRMC,122918.000,A,3423.482,N,08405.039,W,000.0,121.8,031022,000.0,W*6A
$GPGGA,000159.000,3423.451,N,08404.989,W,1,12,1.0,0.0,M,0.0,M,,*77
$GPGSA,A,3,01,02,03,04,05,06,07,08,09,10,11,12,1.0,1.0,1.0*30
$GPRMC,000159.000,A,3423.451,N,08404.989,W,000.0,118.3,041022,000.0,W*6D
$GPGGA,113440.000,3423.437,N,08404.963,W,1,12,1.0,0.0,M,0.0,M,,*7D
$GPGSA,A,3,01,02,03,04,05,06,07,08,09,10,11,12,1.0,1.0,1.0*30
$GPRMC,113440.000,A,3423.437,N,08404.963,W,000.0,109.0,041022,000.0,W*64
$GPGGA,230721.000,3423.426,N,08404.931,W,1,12,1.0,0.0,M,0.0,M,,*7C
$GPGSA,A,3,01,02,03,04,05,06,07,08,09,10,11,12,1.0,1.0,1.0*30
$GPRMC,230721.000,A,3423.426,N,08404.931,W,000.0,107.3,041022,000.0,W*68
$GPGGA,104002.000,3423.407,N,08404.870,W,1,12,1.0,0.0,M,0.0,M,,*79
$GPGSA,A,3,01,02,03,04,05,06,07,08,09,10,11,12,1.0,1.0,1.0*30
$GPRMC,104002.000,A,3423.407,N,08404.870,W,000.0,111.8,051022,000.0,W*60
$GPGGA,221243.000,3423.399,N,08404.850,W,1,12,1.0,0.0,M,0.0,M,,*78
$GPGSA,A,3,01,02,03,04,05,06,07,08,09,10,11,12,1.0,1.0,1.0*30
$GPRMC,221243.000,A,3423.399,N,08404.850,W,000.0,118.9,051022,000.0,W*69
$GPGGA,094524.000,3423.388,N,08404.830,W,1,12,1.0,0.0,M,0.0,M,,*74
$GPGSA,A,3,01,02,03,04,05,06,07,08,09,10,11,12,1.0,1.0,1.0*30
$GPRMC,094524.000,A,3423.388,N,08404.830,W,000.0,123.2,061022,000.0,W*65
$GPGGA,211805.000,3423.373,N,08404.807,W,1,12,1.0,0.0,M,0.0,M,,*75
$GPGSA,A,3,01,02,03,04,05,06,07,08,09,10,11,12,1.0,1.0,1.0*30
$GPRMC,211805.000,A,3423.373,N,08404.807,W,000.0,125.0,061022,000.0,W*60
$GPGGA,085046.000,3423.366,N,08404.797,W,1,12,1.0,0.0,M,0.0,M,,*77
$GPGSA,A,3,01,02,03,04,05,06,07,08,09,10,11,12,1.0,1.0,1.0*30
$GPRMC,085046.000,A,3423.366,N,08404.797,W,000.0,133.3,071022,000.0,W*67
$GPGGA,202327.000,3423.350,N,08404.780,W,1,12,1.0,0.0,M,0.0,M,,*7D
$GPGSA,A,3,01,02,03,04,05,06,07,08,09,10,11,12,1.0,1.0,1.0*30
$GPRMC,202327.000,A,3423.350,N,08404.780,W,000.0,137.9,071022,000.0,W*63
$GPGGA,075608.000,3423.211,N,08404.654,W,1,12,1.0,0.0,M,0.0,M,,*7B
$GPGSA,A,3,01,02,03,04,05,06,07,08,09,10,11,12,1.0,1.0,1.0*30
$GPRMC,075608.000,A,3423.211,N,08404.654,W,000.0,136.2,081022,000.0,W*60
$GPGGA,192849.000,3423.161,N,08404.606,W,1,12,1.0,0.0,M,0.0,M,,*7B
$GPGSA,A,3,01,02,03,04,05,06,07,08,09,10,11,12,1.0,1.0,1.0*30
$GPRMC,192849.000,A,3423.161,N,08404.606,W,000.0,130.1,081022,000.0,W*65
$GPGGA,070130.000,3423.140,N,08404.581,W,1,12,1.0,0.0,M,0.0,M,,*7E
$GPGSA,A,3,01,02,03,04,05,06,07,08,09,10,11,12,1.0,1.0,1.0*30
$GPRMC,070130.000,A,3423.140,N,08404.581,W,000.0,123.4,091022,000.0,W*66
$GPGGA,183411.000,3423.115,N,08404.543,W,1,12,1.0,0.0,M,0.0,M,,*7B
$GPGSA,A,3,01,02,03,04,05,06,07,08,09,10,11,12,1.0,1.0,1.0*30
$GPRMC,183411.000,A,3423.115,N,08404.543,W,000.0,118.7,091022,000.0,W*68
$GPGGA,060652.000,3423.103,N,08404.521,W,1,12,1.0,0.0,M,0.0,M,,*71
$GPGSA,A,3,01,02,03,04,05,06,07,08,09,10,11,12,1.0,1.0,1.0*30
$GPRMC,060652.000,A,3423.103,N,08404.521,W,000.0,115.6,101022,000.0,W*66
$GPGGA,173933.000,3423.092,N,08404.498,W,1,12,1.0,0.0,M,0.0,M,,*70
$GPGSA,A,3,01,02,03,04,05,06,07,08,09,10,11,12,1.0,1.0,1.0*30
$GPRMC,173933.000,A,3423.092,N,08404.498,W,000.0,111.5,101022,000.0,W*60
$GPGGA,051214.000,3423.081,N,08404.470,W,1,12,1.0,0.0,M,0.0,M,,*7B
$GPGSA,A,3,01,02,03,04,05,06,07,08,09,10,11,12,1.0,1.0,1.0*30
$GPRMC,051214.000,A,3423.081,N,08404.470,W,000.0,105.4,111022,000.0,W*6E
$GPGGA,164455.000,3423.073,N,08404.441,W,1,12,1.0,0.0,M,0.0,M,,*70
$GPGSA,A,3,01,02,03,04,05,06,07,08,09,10,11,12,1.0,1.0,1.0*30
$GPRMC,164455.000,A,3423.073,N,08404.441,W,000.0,104.7,111022,000.0,W*67
$GPGGA,041736.000,3423.062,N,08404.399,W,1,12,1.0,0.0,M,0.0,M,,*72
$GPGSA,A,3,01,02,03,04,05,06,07,08,09,10,11,12,1.0,1.0,1.0*30
$GPRMC,041736.000,A,3423.062,N,08404.399,W,000.0,104.0,121022,000.0,W*61
$GPGGA,155017.000,3422.922,N,08403.838,W,1,12,1.0,0.0,M,0.0,M,,*79
$GPGSA,A,3,01,02,03,04,05,06,07,08,09,10,11,12,1.0,1.0,1.0*30
$GPRMC,155017.000,A,3422.922,N,08403.838,W,000.0,104.2,121022,000.0,W*68
$GPGGA,032258.000,3422.881,N,08403.676,W,1,12,1.0,0.0,M,0.0,M,,*7C
$GPGSA,A,3,01,02,03,04,05,06,07,08,09,10,11,12,1.0,1.0,1.0*30
$GPRMC,032258.000,A,3422.881,N,08403.676,W,000.0,106.2,131022,000.0,W*6E
$GPGGA,145539.000,3422.865,N,08403.621,W,1,12,1.0,0.0,M,0.0,M,,*75
$GPGSA,A,3,01,02,03,04,05,06,07,08,09,10,11,12,1.0,1.0,1.0*30
$GPRMC,145539.000,A,3422.865,N,08403.621,W,000.0,107.5,131022,000.0,W*61
$GPGGA,022820.000,3422.848,N,08403.567,W,1,12,1.0,0.0,M,0.0,M,,*7E
$GPGSA,A,3,01,02,03,04,05,06,07,08,09,10,11,12,1.0,1.0,1.0*30
$GPRMC,022820.000,A,3422.848,N,08403.567,W,000.0,110.1,141022,000.0,W*6F
$GPGGA,140101.000,3422.817,N,08403.482,W,1,12,1.0,0.0,M,0.0,M,,*71
$GPGSA,A,3,01,02,03,04,05,06,07,08,09,10,11,12,1.0,1.0,1.0*30
$GPRMC,140101.000,A,3422.817,N,08403.482,W,000.0,110.9,141022,000.0,W*68
$GPGGA,013342.000,3422.793,N,08403.419,W,1,12,1.0,0.0,M,0.0,M,,*72
$GPGSA,A,3,01,02,03,04,05,06,07,08,09,10,11,12,1.0,1.0,1.0*30
$GPRMC,013342.000,A,3422.793,N,08403.419,W,000.0,112.5,151022,000.0,W*64
$GPGGA,130623.000,3422.714,N,08403.228,W,1,12,1.0,0.0,M,0.0,M,,*7B
$GPGSA,A,3,01,02,03,04,05,06,07,08,09,10,11,12,1.0,1.0,1.0*30
$GPRMC,130623.000,A,3422.714,N,08403.228,W,000.0,111.2,151022,000.0,W*69
$GPGGA,003904.000,3422.695,N,08403.179,W,1,12,1.0,0.0,M,0.0,M,,*7F
$GPGSA,A,3,01,02,03,04,05,06,07,08,09,10,11,12,1.0,1.0,1.0*30
$GPRMC,003904.000,A,3422.695,N,08403.179,W,000.0,110.8,161022,000.0,W*65
$GPGGA,121145.000,3422.667,N,08403.105,W,1,12,1.0,0.0,M,0.0,M,,*75
$GPGSA,A,3,01,02,03,04,05,06,07,08,09,10,11,12,1.0,1.0,1.0*30
$GPRMC,121145.000,A,3422.667,N,08403.105,W,000.0,106.0,161022,000.0,W*60
$GPGGA,234426.000,3422.661,N,08403.084,W,1,12,1.0,0.0,M,0.0,M,,*7C
$GPGSA,A,3,01,02,03,04,05,06,07,08,09,10,11,12,1.0,1.0,1.0*30
$GPRMC,234426.000,A,3422.661,N,08403.084,W,000.0,103.4,161022,000.0,W*68
$GPGGA,111707.000,3422.656,N,08403.063,W,1,12,1.0,0.0,M,0.0,M,,*75
$GPGSA,A,3,01,02,03,04,05,06,07,08,09,10,11,12,1.0,1.0,1.0*30
$GPRMC,111707.000,A,3422.656,N,08403.063,W,000.0,090.0,171022,000.0,W*6F
$GPGGA,224948.000,3422.656,N,08403.044,W,1,12,1.0,0.0,M,0.0,M,,*70
$GPGSA,A,3,01,02,03,04,05,06,07,08,09,10,11,12,1.0,1.0,1.0*30
$GPRMC,224948.000,A,3422.656,N,08403.044,W,000.0,090.0,171022,000.0,W*6A
$GPGGA,102229.000,3422.656,N,08403.026,W,1,12,1.0,0.0,M,0.0,M,,*7F
$GPGSA,A,3,01,02,03,04,05,06,07,08,09,10,11,12,1.0,1.0,1.0*30
$GPRMC,102229.000,A,3422.656,N,08403.026,W,000.0,079.7,181022,000.0,W*6A
$GPGGA,215510.000,3422.658,N,08403.015,W,1,12,1.0,0.0,M,0.0,M,,*79
$GPGSA,A,3,01,02,03,04,05,06,07,08,09,10,11,12,1.0,1.0,1.0*30
$GPRMC,215510.000,A,3422.658,N,08403.015,W,000.0,079.6,181022,000.0,W*6D
$GPGGA,092751.000,3422.667,N,08402.966,W,1,12,1.0,0.0,M,0.0,M,,*73
$GPGSA,A,3,01,02,03,04,05,06,07,08,09,10,11,12,1.0,1.0,1.0*30
$GPRMC,092751.000,A,3422.667,N,08402.966,W,000.0,081.9,191022,000.0,W*6E
$GPGGA,210032.000,3422.670,N,08402.945,W,1,12,1.0,0.0,M,0.0,M,,*7E
$GPGSA,A,3,01,02,03,04,05,06,07,08,09,10,11,12,1.0,1.0,1.0*30
$GPRMC,210032.000,A,3422.670,N,08402.945,W,000.0,092.9,191022,000.0,W*61
$GPGGA,083313.000,3422.669,N,08402.925,W,1,12,1.0,0.0,M,0.0,M,,*78
$GPGSA,A,3,01,02,03,04,05,06,07,08,09,10,11,12,1.0,1.0,1.0*30
$GPRMC,083313.000,A,3422.669,N,08402.925,W,000.0,097.6,201022,000.0,W*67
$GPGGA,200554.000,3422.667,N,08402.910,W,1,12,1.0,0.0,M,0.0,M,,*7C
$GPGSA,A,3,01,02,03,04,05,06,07,08,09,10,11,12,1.0,1.0,1.0*30
$GPRMC,200554.000,A,3422.667,N,08402.910,W,000.0,109.3,201022,000.0,W*60
$GPGGA,073835.000,3422.660,N,08402.890,W,1,12,1.0,0.0,M,0.0,M,,*7E
$GPGSA,A,3,01,02,03,04,05,06,07,08,09,10,11,12,1.0,1.0,1.0*30
$GPRMC,073835.000,A,3422.660,N,08402.890,W,000.0,115.4,211022,000.0,W*69
$GPGGA,191116.000,3422.651,N,08402.871,W,1,12,1.0,0.0,M,0.0,M,,*76
$GPGSA,A,3,01,02,03,04,05,06,07,08,09,10,11,12,1.0,1.0,1.0*30
$GPRMC,191116.000,A,3422.651,N,08402.871,W,000.0,125.9,211022,000.0,W*6F
$GPGGA,064357.000,3422.638,N,08402.853,W,1,12,1.0,0.0,M,0.0,M,,*75
$GPGSA,A,3,01,02,03,04,05,06,07,08,09,10,11,12,1.0,1.0,1.0*30
$GPRMC,064357.000,A,3422.638,N,08402.853,W,000.0,137.3,221022,000.0,W*66
$GPGGA,181638.000,3422.625,N,08402.841,W,1,12,1.0,0.0,M,0.0,M,,*7C
$GPGSA,A,3,01,02,03,04,05,06,07,08,09,10,11,12,1.0,1.0,1.0*30
$GPRMC,181638.000,A,3422.625,N,08402.841,W,000.0,142.5,221022,000.0,W*6B
$GPGGA,054919.000,3422.495,N,08402.741,W,1,12,1.0,0.0,M,0.0,M,,*7F
$GPGSA,A,3,01,02,03,04,05,06,07,08,09,10,11,12,1.0,1.0,1.0*30
$GPRMC,054919.000,A,3422.495,N,08402.741,W,000.0,140.2,231022,000.0,W*6C
$GPGGA,172200.000,3422.465,N,08402.716,W,1,12,1.0,0.0,M,0.0,M,,*74
$GPGSA,A,3,01,02,03,04,05,06,07,08,09,10,11,12,1.0,1.0,1.0*30
$GPRMC,172200.000,A,3422.465,N,08402.716,W,000.0,135.1,231022,000.0,W*66
$GPGGA,045441.000,3422.457,N,08402.708,W,1,12,1.0,0.0,M,0.0,M,,*7C
$GPGSA,A,3,01,02,03,04,05,06,07,08,09,10,11,12,1.0,1.0,1.0*30
$GPRMC,045441.000,A,3422.457,N,08402.708,W,000.0,129.3,241022,000.0,W*66
$GPGGA,162722.000,3422.448,N,08402.697,W,1,12,1.0,0.0,M,0.0,M,,*77
$GPGSA,A,3,01,02,03,04,05,06,07,08,09,10,11,12,1.0,1.0,1.0*30
$GPRMC,162722.000,A,3422.448,N,08402.697,W,000.0,123.1,241022,000.0,W*65
$GPGGA,040003.000,3422.435,N,08402.677,W,1,12,1.0,0.0,M,0.0,M,,*76
$GPGSA,A,3,01,02,03,04,05,06,07,08,09,10,11,12,1.0,1.0,1.0*30
$GPRMC,040003.000,A,3422.435,N,08402.677,W,000.0,122.1,251022,000.0,W*64
$GPGGA,153244.000,3422.380,N,08402.589,W,1,12,1.0,0.0,M,0.0,M,,*7F
$GPGSA,A,3,01,02,03,04,05,06,07,08,09,10,11,12,1.0,1.0,1.0*30
$GPRMC,153244.000,A,3422.380,N,08402.589,W,000.0,125.9,251022,000.0,W*62
$GPGGA,030525.000,3422.367,N,08402.571,W,1,12,1.0,0.0,M,0.0,M,,*75
$GPGSA,A,3,01,02,03,04,05,06,07,08,09,10,11,12,1.0,1.0,1.0*30
$GPRMC,030525.000,A,3422.367,N,08402.571,W,000.0,135.1,261022,000.0,W*62
$GPGGA,143806.000,3422.353,N,08402.557,W,1,12,1.0,0.0,M,0.0,M,,*7F
$GPGSA,A,3,01,02,03,04,05,06,07,08,09,10,11,12,1.0,1.0,1.0*30
$GPRMC,143806.000,A,3422.353,N,08402.557,W,000.0,141.9,261022,000.0,W*63
$GPGGA,021047.000,3422.339,N,08402.546,W,1,12,1.0,0.0,M,0.0,M,,*7B
$GPGSA,A,3,01,02,03,04,05,06,07,08,09,10,11,12,1.0,1.0,1.0*30
$GPRMC,021047.000,A,3422.339,N,08402.546,W,000.0,146.4,271022,000.0,W*6C
$GPGGA,134328.000,3422.321,N,08402.534,W,1,12,1.0,0.0,M,0.0,M,,*78
$GPGSA,A,3,01,02,03,04,05,06,07,08,09,10,11,12,1.0,1.0,1.0*30
$GPRMC,134328.000,A,3422.321,N,08402.534,W,000.0,156.1,271022,000.0,W*6B
$GPGGA,011609.000,3422.303,N,08402.526,W,1,12,1.0,0.0,M,0.0,M,,*7B
$GPGSA,A,3,01,02,03,04,05,06,07,08,09,10,11,12,1.0,1.0,1.0*30
$GPRMC,011609.000,A,3422.303,N,08402.526,W,000.0,162.9,281022,000.0,W*68
$GPGGA,124850.000,3422.290,N,08402.522,W,1,12,1.0,0.0,M,0.0,M,,*71
$GPGSA,A,3,01,02,03,04,05,06,07,08,09,10,11,12,1.0,1.0,1.0*30
$GPRMC,124850.000,A,3422.290,N,08402.522,W,000.0,170.0,281022,000.0,W*68
$GPGGA,002131.000,3422.273,N,08402.519,W,1,12,1.0,0.0,M,0.0,M,,*7F
$GPGSA,A,3,01,02,03,04,05,06,07,08,09,10,11,12,1.0,1.0,1.0*30
$GPRMC,002131.000,A,3422.273,N,08402.519,W,000.0,175.2,291022,000.0,W*60
$GPGGA,115412.000,3422.261,N,08402.518,W,1,12,1.0,0.0,M,0.0,M,,*7E
$GPGSA,A,3,01,02,03,04,05,06,07,08,09,10,11,12,1.0,1.0,1.0*30
$GPRMC,115412.000,A,3422.261,N,08402.518,W,000.0,181.3,291022,000.0,W*6B
$GPGGA,232653.000,3422.175,N,08402.520,W,1,12,1.0,0.0,M,0.0,M,,*72
$GPGSA,A,3,01,02,03,04,05,06,07,08,09,10,11,12,1.0,1.0,1.0*30
$GPRMC,232653.000,A,3422.175,N,08402.520,W,000.0,177.0,291022,000.0,W*6D
$GPGGA,105934.000,3422.156,N,08402.519,W,1,12,1.0,0.0,M,0.0,M,,*70
$GPGSA,A,3,01,02,03,04,05,06,07,08,09,10,11,12,1.0,1.0,1.0*30
$GPRMC,105934.000,A,3422.156,N,08402.519,W,000.0,167.0,301022,000.0,W*66
$GPGGA,223215.000,3422.130,N,08402.513,W,1,12,1.0,0.0,M,0.0,M,,*75
$GPGSA,A,3,01,02,03,04,05,06,07,08,09,10,11,12,1.0,1.0,1.0*30
$GPRMC,223215.000,A,3422.130,N,08402.513,W,000.0,154.5,301022,000.0,W*66
$GPGGA,100456.000,3422.107,N,08402.502,W,1,12,1.0,0.0,M,0.0,M,,*72
$GPGSA,A,3,01,02,03,04,05,06,07,08,09,10,11,12,1.0,1.0,1.0*30
$GPRMC,100456.000,A,3422.107,N,08402.502,W,000.0,146.4,311022,000.0,W*62
$GPGGA,213737.000,3422.098,N,08402.496,W,1,12,1.0,0.0,M,0.0,M,,*7C
$GPGSA,A,3,01,02,03,04,05,06,07,08,09,10,11,12,1.0,1.0,1.0*30
$GPRMC,213737.000,A,3422.098,N,08402.496,W,000.0,145.1,311022,000.0,W*6A
$GPGGA,091018.000,3422.078,N,08402.482,W,1,12,1.0,0.0,M,0.0,M,,*75
$GPGSA,A,3,01,02,03,04,05,06,07,08,09,10,11,12,1.0,1.0,1.0*30
$GPRMC,091018.000,A,3422.078,N,08402.482,W,000.0,137.0,011122,000.0,W*65
$GPGGA,204259.000,3422.063,N,08402.468,W,1,12,1.0,0.0,M,0.0,M,,*72
$GPGSA,A,3,01,02,03,04,05,06,07,08,09,10,11,12,1.0,1.0,1.0*30
$GPRMC,204259.000,A,3422.063,N,08402.468,W,000.0,133.6,011122,000.0,W*60
$GPGGA,081540.000,3421.924,N,08402.322,W,1,12,1.0,0.0,M,0.0,M,,*72
$GPGSA,A,3,01,02,03,04,05,06,07,08,09,10,11,12,1.0,1.0,1.0*30
$GPRMC,081540.000,A,3421.924,N,08402.322,W,000.0,155.6,021122,000.0,W*63
$GPGGA,194821.000,3421.913,N,08402.317,W,1,12,1.0,0.0,M,0.0,M,,*7F
$GPGSA,A,3,01,02,03,04,05,06,07,08,09,10,11,12,1.0,1.0,1.0*30
$GPRMC,194821.000,A,3421.913,N,08402.317,W,000.0,133.5,021122,000.0,W*6D
$GPGGA,072102.000,3421.858,N,08402.259,W,1,12,1.0,0.0,M,0.0,M,,*7B
$GPGSA,A,3,01,02,03,04,05,06,07,08,09,10,11,12,1.0,1.0,1.0*30
$GPRMC,072102.000,A,3421.858,N,08402.259,W,000.0,131.5,031122,000.0,W*6A
$GPGGA,185343.000,3421.828,N,08402.225,W,1,12,1.0,0.0,M,0.0,M,,*79
$GPGSA,A,3,01,02,03,04,05,06,07,08,09,10,11,12,1.0,1.0,1.0*30
$GPRMC,185343.000,A,3421.828,N,08402.225,W,000.0,149.1,031122,000.0,W*63
$GPGGA,062624.000,3421.823,N,08402.222,W,1,12,1.0,0.0,M,0.0,M,,*79
$GPGSA,A,3,01,02,03,04,05,06,07,08,09,10,11,12,1.0,1.0,1.0*30
$GPRMC,062624.000,A,3421.823,N,08402.222,W,000.0,168.7,041122,000.0,W*61
$GPGGA,175905.000,3421.813,N,08402.220,W,1,12,1.0,0.0,M,0.0,M,,*73
$GPGSA,A,3,01,02,03,04,05,06,07,08,09,10,11,12,1.0,1.0,1.0*30
$GPRMC,175905.000,A,3421.813,N,08402.220,W,000.0,198.4,041122,000.0,W*67
$GPGGA,053146.000,3421.804,N,08402.223,W,1,12,1.0,0.0,M,0.0,M,,*7C
$GPGSA,A,3,01,02,03,04,05,06,07,08,09,10,11,12,1.0,1.0,1.0*30
$GPRMC,053146.000,A,3421.804,N,08402.223,W,000.0,224.9,051122,000.0,W*60
$GPGGA,170427.000,3421.796,N,08402.231,W,1,12,1.0,0.0,M,0.0,M,,*79
$GPGSA,A,3,01,02,03,04,05,06,07,08,09,10,11,12,1.0,1.0,1.0*30
$GPRMC,170427.000,A,3421.796,N,08402.231,W,000.0,233.9,051122,000.0,W*63
$GPGGA,043708.000,3421.780,N,08402.253,W,1,12,1.0,0.0,M,0.0,M,,*75
$GPGSA,A,3,01,02,03,04,05,06,07,08,09,10,11,12,1.0,1.0,1.0*30
$GPRMC,043708.000,A,3421.780,N,08402.253,W,000.0,235.2,061122,000.0,W*61
$GPGGA,170949.000,3421.755,N,08402.289,W,1,12,1.0,0.0,M,0.0,M,,*70
$GPGSA,A,3,01,02,03,04,05,06,07,08,09,10,11,12,1.0,1.0,1.0*30
$GPRMC,170949.000,A,3421.755,N,08402.289,W,000.0,224.9,061122,000.0,W*6F
$GPGGA,044230.000,3421.746,N,08402.298,W,1,12,1.0,0.0,M,0.0,M,,*71
$GPGSA,A,3,01,02,03,04,05,06,07,08,09,10,11,12,1.0,1.0,1.0*30
$GPRMC,044230.000,A,3421.746,N,08402.298,W,000.0,221.1,071122,000.0,W*62
$GPGGA,161511.000,3421.722,N,08402.319,W,1,12,1.0,0.0,M,0.0,M,,*79
$GPGSA,A,3,01,02,03,04,05,06,07,08,09,10,11,12,1.0,1.0,1.0*30
$GPRMC,161511.000,A,3421.722,N,08402.319,W,000.0,238.2,071122,000.0,W*61
$GPGGA,034752.000,3421.541,N,08402.611,W,1,12,1.0,0.0,M,0.0,M,,*77
$GPGSA,A,3,01,02,03,04,05,06,07,08,09,10,11,12,1.0,1.0,1.0*30
$GPRMC,034752.000,A,3421.541,N,08402.611,W,000.0,234.6,081122,000.0,W*68
$GPGGA,152033.000,3421.524,N,08402.635,W,1,12,1.0,0.0,M,0.0,M,,*73
$GPGSA,A,3,01,02,03,04,05,06,07,08,09,10,11,12,1.0,1.0,1.0*30
$GPRMC,152033.000,A,3421.524,N,08402.635,W,000.0,230.5,081122,000.0,W*6B
$GPGGA,025314.000,3421.501,N,08402.663,W,1,12,1.0,0.0,M,0.0,M,,*70
$GPGSA,A,3,01,02,03,04,05,06,07,08,09,10,11,12,1.0,1.0,1.0*30
$GPRMC,025314.000,A,3421.501,N,08402.663,W,000.0,226.7,091122,000.0,W*6C
$GPGGA,142555.000,3421.485,N,08402.680,W,1,12,1.0,0.0,M,0.0,M,,*73
$GPGSA,A,3,01,02,03,04,05,06,07,08,09,10,11,12,1.0,1.0,1.0*30
$GPRMC,142555.000,A,3421.485,N,08402.680,W,000.0,220.9,091122,000.0,W*67
$GPGGA,015836.000,3421.455,N,08402.706,W,1,12,1.0,0.0,M,0.0,M,,*7A
$GPGSA,A,3,01,02,03,04,05,06,07,08,09,10,11,12,1.0,1.0,1.0*30
$GPRMC,015836.000,A,3421.455,N,08402.706,W,000.0,214.9,101122,000.0,W*61
$GPGGA,133117.000,3421.425,N,08402.727,W,1,12,1.0,0.0,M,0.0,M,,*71
$GPGSA,A,3,01,02,03,04,05,06,07,08,09,10,11,12,1.0,1.0,1.0*30
$GPRMC,133117.000,A,3421.425,N,08402.727,W,000.0,210.4,101122,000.0,W*63
$GPGGA,010358.000,3421.408,N,08402.737,W,1,12,1.0,0.0,M,0.0,M,,*76
$GPGSA,A,3,01,02,03,04,05,06,07,08,09,10,11,12,1.0,1.0,1.0*30
$GPRMC,010358.000,A,3421.408,N,08402.737,W,000.0,203.2,111122,000.0,W*61
$GPGGA,123639.000,3421.387,N,08402.746,W,1,12,1.0,0.0,M,0.0,M,,*73
$GPGSA,A,3,01,02,03,04,05,06,07,08,09,10,11,12,1.0,1.0,1.0*30
$GPRMC,123639.000,A,3421.387,N,08402.746,W,000.0,202.7,111122,000.0,W*60
$GPGGA,000920.000,3421.344,N,08402.764,W,1,12,1.0,0.0,M,0.0,M,,*7B
$GPGSA,A,3,01,02,03,04,05,06,07,08,09,10,11,12,1.0,1.0,1.0*30
$GPRMC,000920.000,A,3421.344,N,08402.764,W,000.0,201.6,121122,000.0,W*69
$GPGGA,114201.000,3421.291,N,08402.785,W,1,12,1.0,0.0,M,0.0,M,,*71
$GPGSA,A,3,01,02,03,04,05,06,07,08,09,10,11,12,1.0,1.0,1.0*30
$GPRMC,114201.000,A,3421.291,N,08402.785,W,000.0,201.6,121122,000.0,W*63
$GPGGA,231442.000,3421.218,N,08402.814,W,1,12,1.0,0.0,M,0.0,M,,*72
$GPGSA,A,3,01,02,03,04,05,06,07,08,09,10,11,12,1.0,1.0,1.0*30
$GPRMC,231442.000,A,3421.218,N,08402.814,W,000.0,207.3,121122,000.0,W*63
$GPGGA,104723.000,3421.187,N,08402.830,W,1,12,1.0,0.0,M,0.0,M,,*70
$GPGSA,A,3,01,02,03,04,05,06,07,08,09,10,11,12,1.0,1.0,1.0*30
$GPRMC,104723.000,A,3421.187,N,08402.830,W,000.0,202.4,131122,000.0,W*62
$GPGGA,222004.000,3420.972,N,08402.919,W,1,12,1.0,0.0,M,0.0,M,,*7C
$GPGSA,A,3,01,02,03,04,05,06,07,08,09,10,11,12,1.0,1.0,1.0*30
$GPRMC,222004.000,A,3420.972,N,08402.919,W,000.0,203.5,131122,000.0,W*6E
$GPGGA,095245.000,3420.910,N,08402.946,W,1,12,1.0,0.0,M,0.0,M,,*7B
$GPGSA,A,3,01,02,03,04,05,06,07,08,09,10,11,12,1.0,1.0,1.0*30
$GPRMC,095245.000,A,3420.910,N,08402.946,W,000.0,206.5,141122,000.0,W*6B
$GPGGA,212526.000,3420.872,N,08402.965,W,1,12,1.0,0.0,M,0.0,M,,*70
$GPGSA,A,3,01,02,03,04,05,06,07,08,09,10,11,12,1.0,1.0,1.0*30
$GPRMC,212526.000,A,3420.872,N,08402.965,W,000.0,210.7,141122,000.0,W*65
$GPGGA,085807.000,3420.825,N,08402.993,W,1,12,1.0,0.0,M,0.0,M,,*79
$GPGSA,A,3,01,02,03,04,05,06,07,08,09,10,11,12,1.0,1.0,1.0*30
$GPRMC,085807.000,A,3420.825,N,08402.993,W,000.0,213.0,151122,000.0,W*69
$GPGGA,203048.000,3420.782,N,08403.021,W,1,12,1.0,0.0,M,0.0,M,,*75
$GPGSA,A,3,01,02,03,04,05,06,07,08,09,10,11,12,1.0,1.0,1.0*30
$GPRMC,203048.000,A,3420.782,N,08403.021,W,000.0,216.9,151122,000.0,W*69
$GPGGA,080329.000,3420.689,N,08403.091,W,1,12,1.0,0.0,M,0.0,M,,*79
$GPGSA,A,3,01,02,03,04,05,06,07,08,09,10,11,12,1.0,1.0,1.0*30
$GPRMC,080329.000,A,3420.689,N,08403.091,W,000.0,217.2,161122,000.0,W*6C
$GPGGA,193610.000,3420.576,N,08403.177,W,1,12,1.0,0.0,M,0.0,M,,*7F
$GPGSA,A,3,01,02,03,04,05,06,07,08,09,10,11,12,1.0,1.0,1.0*30
$GPRMC,193610.000,A,3420.576,N,08403.177,W,000.0,214.9,161122,000.0,W*62
$GPGGA,070851.000,3420.536,N,08403.205,W,1,12,1.0,0.0,M,0.0,M,,*7A
$GPGSA,A,3,01,02,03,04,05,06,07,08,09,10,11,12,1.0,1.0,1.0*30
$GPRMC,070851.000,A,3420.536,N,08403.205,W,000.0,214.1,171122,000.0,W*6E
$GPGGA,184132.000,3420.508,N,08403.224,W,1,12,1.0,0.0,M,0.0,M,,*72
$GPGSA,A,3,01,02,03,04,05,06,07,08,09,10,11,12,1.0,1.0,1.0*30
$GPRMC,184132.000,A,3420.508,N,08403.224,W,000.0,209.8,171122,000.0,W*63
$GPGGA,061413.000,3420.461,N,08403.251,W,1,12,1.0,0.0,M,0.0,M,,*72
$GPGSA,A,3,01,02,03,04,05,06,07,08,09,10,11,12,1.0,1.0,1.0*30
$GPRMC,061413.000,A,3420.461,N,08403.251,W,000.0,205.6,181122,000.0,W*6E
$GPGGA,174654.000,3420.411,N,08403.275,W,1,12,1.0,0.0,M,0.0,M,,*77
$GPGSA,A,3,01,02,03,04,05,06,07,08,09,10,11,12,1.0,1.0,1.0*30
$GPRMC,174654.000,A,3420.411,N,08403.275,W,000.0,203.0,181122,000.0,W*6B
$GPGGA,051935.000,3420.378,N,08403.289,W,1,12,1.0,0.0,M,0.0,M,,*72
$GPGSA,A,3,01,02,03,04,05,06,07,08,09,10,11,12,1.0,1.0,1.0*30
$GPRMC,051935.000,A,3420.378,N,08403.289,W,000.0,200.5,191122,000.0,W*69
$GPGGA,165216.000,3420.338,N,08403.304,W,1,12,1.0,0.0,M,0.0,M,,*7E
$GPGSA,A,3,01,02,03,04,05,06,07,08,09,10,11,12,1.0,1.0,1.0*30
$GPRMC,165216.000,A,3420.338,N,08403.304,W,000.0,197.8,191122,000.0,W*65
$GPGGA,042457.000,3420.282,N,08403.322,W,1,12,1.0,0.0,M,0.0,M,,*7D
$GPGSA,A,3,01,02,03,04,05,06,07,08,09,10,11,12,1.0,1.0,1.0*30
$GPRMC,042457.000,A,3420.282,N,08403.322,W,000.0,192.9,201122,000.0,W*68
$GPGGA,155738.000,3420.234,N,08403.333,W,1,12,1.0,0.0,M,0.0,M,,*7D
$GPGSA,A,3,01,02,03,04,05,06,07,08,09,10,11,12,1.0,1.0,1.0*30
$GPRMC,155738.000,A,3420.234,N,08403.333,W,000.0,190.4,201122,000.0,W*67
$GPGGA,033019.000,3420.196,N,08403.340,W,1,12,1.0,0.0,M,0.0,M,,*77
$GPGSA,A,3,01,02,03,04,05,06,07,08,09,10,11,12,1.0,1.0,1.0*30
$GPRMC,033019.000,A,3420.196,N,08403.340,W,000.0,189.3,211122,000.0,W*63
$GPGGA,150300.000,3419.927,N,08403.384,W,1,12,1.0,0.0,M,0.0,M,,*78
$GPGSA,A,3,01,02,03,04,05,06,07,08,09,10,11,12,1.0,1.0,1.0*30
$GPRMC,150300.000,A,3419.927,N,08403.384,W,000.0,189.4,211122,000.0,W*6B
$GPGGA,023541.000,3419.855,N,08403.396,W,1,12,1.0,0.0,M,0.0,M,,*79
$GPGSA,A,3,01,02,03,04,05,06,07,08,09,10,11,12,1.0,1.0,1.0*30
$GPRMC,023541.000,A,3419.855,N,08403.396,W,000.0,192.7,221122,000.0,W*60
$GPGGA,140822.000,3419.802,N,08403.408,W,1,12,1.0,0.0,M,0.0,M,,*77
$GPGSA,A,3,01,02,03,04,05,06,07,08,09,10,11,12,1.0,1.0,1.0*30
$GPRMC,140822.000,A,3419.802,N,08403.408,W,000.0,194.8,221122,000.0,W*67
$GPGGA,014103.000,3419.768,N,08403.417,W,1,12,1.0,0.0,M,0.0,M,,*70
$GPGSA,A,3,01,02,03,04,05,06,07,08,09,10,11,12,1.0,1.0,1.0*30
$GPRMC,014103.000,A,3419.768,N,08403.417,W,000.0,199.1,231122,000.0,W*65
$GPGGA,131344.000,3419.716,N,08403.435,W,1,12,1.0,0.0,M,0.0,M,,*7E
$GPGSA,A,3,01,02,03,04,05,06,07,08,09,10,11,12,1.0,1.0,1.0*30
$GPRMC,131344.000,A,3419.716,N,08403.435,W,000.0,203.4,231122,000.0,W*6E
$GPGGA,004625.000,3419.640,N,08403.468,W,1,12,1.0,0.0,M,0.0,M,,*71
$GPGSA,A,3,01,02,03,04,05,06,07,08,09,10,11,12,1.0,1.0,1.0*30
$GPRMC,004625.000,A,3419.640,N,08403.468,W,000.0,209.0,241122,000.0,W*68
$GPGGA,121906.000,3419.613,N,08403.483,W,1,12,1.0,0.0,M,0.0,M,,*7A
$GPGSA,A,3,01,02,03,04,05,06,07,08,09,10,11,12,1.0,1.0,1.0*30
$GPRMC,121906.000,A,3419.613,N,08403.483,W,000.0,208.6,241122,000.0,W*64
$GPGGA,235147.000,3419.454,N,08403.570,W,1,12,1.0,0.0,M,0.0,M,,*7D
$GPGSA,A,3,01,02,03,04,05,06,07,08,09,10,11,12,1.0,1.0,1.0*30
$GPRMC,235147.000,A,3419.454,N,08403.570,W,000.0,208.7,241122,000.0,W*62
$GPGGA,112428.000,3419.259,N,08403.677,W,1,12,1.0,0.0,M,0.0,M,,*78
$GPGSA,A,3,01,02,03,04,05,06,07,08,09,10,11,12,1.0,1.0,1.0*30
$GPRMC,112428.000,A,3419.259,N,08403.677,W,000.0,206.7,251122,000.0,W*68
$GPGGA,225709.000,3419.154,N,08403.730,W,1,12,1.0,0.0,M,0.0,M,,*73
$GPGSA,A,3,01,02,03,04,05,06,07,08,09,10,11,12,1.0,1.0,1.0*30
$GPRMC,225709.000,A,3419.154,N,08403.730,W,000.0,205.8,251122,000.0,W*6F
$GPGGA,102950.000,3418.883,N,08403.861,W,1,12,1.0,0.0,M,0.0,M,,*7E
$GPGSA,A,3,01,02,03,04,05,06,07,08,09,10,11,12,1.0,1.0,1.0*30
$GPRMC,102950.000,A,3418.883,N,08403.861,W,000.0,205.8,261122,000.0,W*61
$GPGGA,220231.000,3418.635,N,08403.981,W,1,12,1.0,0.0,M,0.0,M,,*7D
$GPGSA,A,3,01,02,03,04,05,06,07,08,09,10,11,12,1.0,1.0,1.0*30
$GPRMC,220231.000,A,3418.635,N,08403.981,W,000.0,206.9,261122,000.0,W*60
$GPGGA,093512.000,3418.572,N,08404.013,W,1,12,1.0,0.0,M,0.0,M,,*74
$GPGSA,A,3,01,02,03,04,05,06,07,08,09,10,11,12,1.0,1.0,1.0*30
$GPRMC,093512.000,A,3418.572,N,08404.013,W,000.0,212.2,271122,000.0,W*66
$GPGGA,210753.000,3418.515,N,08404.049,W,1,12,1.0,0.0,M,0.0,M,,*74
$GPGSA,A,3,01,02,03,04,05,06,07,08,09,10,11,12,1.0,1.0,1.0*30
$GPRMC,210753.000,A,3418.515,N,08404.049,W,000.0,215.9,271122,000.0,W*6A
$GPGGA,084034.000,3418.457,N,08404.091,W,1,12,1.0,0.0,M,0.0,M,,*7F
$GPGSA,A,3,01,02,03,04,05,06,07,08,09,10,11,12,1.0,1.0,1.0*30
$GPRMC,084034.000,A,3418.457,N,08404.091,W,000.0,219.0,281122,000.0,W*6B
$GPGGA,201315.000,3418.441,N,08404.104,W,1,12,1.0,0.0,M,0.0,M,,*7A
$GPGSA,A,3,01,02,03,04,05,06,07,08,09,10,11,12,1.0,1.0,1.0*30
$GPRMC,201315.000,A,3418.441,N,08404.104,W,000.0,221.4,281122,000.0,W*61
$GPGGA,074556.000,3418.287,N,08404.240,W,1,12,1.0,0.0,M,0.0,M,,*74
$GPGSA,A,3,01,02,03,04,05,06,07,08,09,10,11,12,1.0,1.0,1.0*30
$GPRMC,074556.000,A,3418.287,N,08404.240,W,000.0,220.6,291122,000.0,W*6D
$GPGGA,191837.000,3418.202,N,08404.313,W,1,12,1.0,0.0,M,0.0,M,,*7E
$GPGSA,A,3,01,02,03,04,05,06,07,08,09,10,11,12,1.0,1.0,1.0*30
$GPRMC,191837.000,A,3418.202,N,08404.313,W,000.0,218.9,291122,000.0,W*63
$GPGGA,065118.000,3418.181,N,08404.330,W,1,12,1.0,0.0,M,0.0,M,,*79
$GPGSA,A,3,01,02,03,04,05,06,07,08,09,10,11,12,1.0,1.0,1.0*30
$GPRMC,065118.000,A,3418.181,N,08404.330,W,000.0,213.6,301122,000.0,W*68
$GPGGA,182359.000,3418.145,N,08404.354,W,1,12,1.0,0.0,M,0.0,M,,*7C
$GPGSA,A,3,01,02,03,04,05,06,07,08,09,10,11,12,1.0,1.0,1.0*30
$GPRMC,182359.000,A,3418.145,N,08404.354,W,000.0,209.3,301122,000.0,W*63
$GPGGA,055640.000,3418.129,N,08404.363,W,1,12,1.0,0.0,M,0.0,M,,*74
$GPGSA,A,3,01,02,03,04,05,06,07,08,09,10,11,12,1.0,1.0,1.0*30
$GPRMC,055640.000,A,3418.129,N,08404.363,W,000.0,205.7,011222,000.0,W*62
$GPGGA,172921.000,3418.102,N,08404.376,W,1,12,1.0,0.0,M,0.0,M,,*75
$GPGSA,A,3,01,02,03,04,05,06,07,08,09,10,11,12,1.0,1.0,1.0*30
$GPRMC,172921.000,A,3418.102,N,08404.376,W,000.0,202.2,011222,000.0,W*61
$GPGGA,050202.000,3418.058,N,08404.394,W,1,12,1.0,0.0,M,0.0,M,,*7C
$GPGSA,A,3,01,02,03,04,05,06,07,08,09,10,11,12,1.0,1.0,1.0*30
$GPRMC,050202.000,A,3418.058,N,08404.394,W,000.0,194.9,021222,000.0,W*6C
$GPGGA,163443.000,3418.028,N,08404.402,W,1,12,1.0,0.0,M,0.0,M,,*71
$GPGSA,A,3,01,02,03,04,05,06,07,08,09,10,11,12,1.0,1.0,1.0*30
$GPRMC,163443.000,A,3418.028,N,08404.402,W,000.0,189.9,021222,000.0,W*6D
$GPGGA,040724.000,3417.965,N,08404.413,W,1,12,1.0,0.0,M,0.0,M,,*7C
$GPGSA,A,3,01,02,03,04,05,06,07,08,09,10,11,12,1.0,1.0,1.0*30
$GPRMC,040724.000,A,3417.965,N,08404.413,W,000.0,189.2,031222,000.0,W*6A
$GPGGA,154005.000,3417.587,N,08404.474,W,1,12,1.0,0.0,M,0.0,M,,*7D
$GPGSA,A,3,01,02,03,04,05,06,07,08,09,10,11,12,1.0,1.0,1.0*30
$GPRMC,154005.000,A,3417.587,N,08404.474,W,000.0,189.1,031222,000.0,W*68
$GPGGA,031246.000,3417.343,N,08404.513,W,1,12,1.0,0.0,M,0.0,M,,*74
$GPGSA,A,3,01,02,03,04,05,06,07,08,09,10,11,12,1.0,1.0,1.0*30
$GPRMC,031246.000,A,3417.343,N,08404.513,W,000.0,188.9,041222,000.0,W*6F
$GPGGA,144527.000,3416.910,N,08404.581,W,1,12,1.0,0.0,M,0.0,M,,*71
$GPGSA,A,3,01,02,03,04,05,06,07,08,09,10,11,12,1.0,1.0,1.0*30
$GPRMC,144527.000,A,3416.910,N,08404.581,W,000.0,189.1,041222,000.0,W*63
$GPGGA,021808.000,3416.686,N,08404.617,W,1,12,1.0,0.0,M,0.0,M,,*7F
$GPGSA,A,3,01,02,03,04,05,06,07,08,09,10,11,12,1.0,1.0,1.0*30
$GPRMC,021808.000,A,3416.686,N,08404.617,W,000.0,189.0,051222,000.0,W*6D
$GPGGA,135049.000,3416.535,N,08404.641,W,1,12,1.0,0.0,M,0.0,M,,*7E
$GPGSA,A,3,01,02,03,04,05,06,07,08,09,10,11,12,1.0,1.0,1.0*30
$GPRMC,135049.000,A,3416.535,N,08404.641,W,000.0,192.9,051222,000.0,W*6F
$GPGGA,012330.000,3416.500,N,08404.649,W,1,12,1.0,0.0,M,0.0,M,,*79
$GPGSA,A,3,01,02,03,04,05,06,07,08,09,10,11,12,1.0,1.0,1.0*30
$GPRMC,012330.000,A,3416.500,N,08404.649,W,000.0,195.9,061222,000.0,W*6C
$GPGGA,125611.000,3416.472,N,08404.657,W,1,12,1.0,0.0,M,0.0,M,,*71
$GPGSA,A,3,01,02,03,04,05,06,07,08,09,10,11,12,1.0,1.0,1.0*30
$GPRMC,125611.000,A,3416.472,N,08404.657,W,000.0,200.3,061222,000.0,W*61
$GPGGA,002852.000,3416.445,N,08404.667,W,1,12,1.0,0.0,M,0.0,M,,*7B
$GPGSA,A,3,01,02,03,04,05,06,07,08,09,10,11,12,1.0,1.0,1.0*30
$GPRMC,002852.000,A,3416.445,N,08404.667,W,000.0,201.8,071222,000.0,W*60
$GPGGA,120133.000,3416.420,N,08404.677,W,1,12,1.0,0.0,M,0.0,M,,*76
$GPGSA,A,3,01,02,03,04,05,06,07,08,09,10,11,12,1.0,1.0,1.0*30
$GPRMC,120133.000,A,3416.420,N,08404.677,W,000.0,206.5,071222,000.0,W*67
$GPGGA,233414.000,3416.388,N,08404.693,W,1,12,1.0,0.0,M,0.0,M,,*78
$GPGSA,A,3,01,02,03,04,05,06,07,08,09,10,11,12,1.0,1.0,1.0*30
$GPRMC,233414.000,A,3416.388,N,08404.693,W,000.0,209.7,071222,000.0,W*64
$GPGGA,110655.000,3416.353,N,08404.713,W,1,12,1.0,0.0,M,0.0,M,,*72
$GPGSA,A,3,01,02,03,04,05,06,07,08,09,10,11,12,1.0,1.0,1.0*30
$GPRMC,110655.000,A,3416.353,N,08404.713,W,000.0,211.7,081222,000.0,W*68
$GPGGA,223936.000,3416.332,N,08404.726,W,1,12,1.0,0.0,M,0.0,M,,*7A
$GPGSA,A,3,01,02,03,04,05,06,07,08,09,10,11,12,1.0,1.0,1.0*30
$GPRMC,223936.000,A,3416.332,N,08404.726,W,000.0,214.6,081222,000.0,W*64
$GPGGA,101217.000,3416.306,N,08404.744,W,1,12,1.0,0.0,M,0.0,M,,*72
$GPGSA,A,3,01,02,03,04,05,06,07,08,09,10,11,12,1.0,1.0,1.0*30
$GPRMC,101217.000,A,3416.306,N,08404.744,W,000.0,217.2,091222,000.0,W*6A
$GPGGA,214458.000,3416.281,N,08404.763,W,1,12,1.0,0.0,M,0.0,M,,*73
$GPGSA,A,3,01,02,03,04,05,06,07,08,09,10,11,12,1.0,1.0,1.0*30
$GPRMC,214458.000,A,3416.281,N,08404.763,W,000.0,221.8,091222,000.0,W*64
$GPGGA,091739.000,3416.243,N,08404.797,W,1,12,1.0,0.0,M,0.0,M,,*7D
$GPGSA,A,3,01,02,03,04,05,06,07,08,09,10,11,12,1.0,1.0,1.0*30
$GPRMC,091739.000,A,3416.243,N,08404.797,W,000.1,224.3,101222,000.0,W*6D
$GPGGA,205020.000,3415.743,N,08405.285,W,1,12,1.0,0.0,M,0.0,M,,*7C
$GPGSA,A,3,01,02,03,04,05,06,07,08,09,10,11,12,1.0,1.0,1.0*30
$GPRMC,205020.000,A,3415.743,N,08405.285,W,000.0,221.1,101222,000.0,W*6A
$GPGGA,082301.000,3415.695,N,08405.327,W,1,12,1.0,0.0,M,0.0,M,,*72
$GPGSA,A,3,01,02,03,04,05,06,07,08,09,10,11,12,1.0,1.0,1.0*30
$GPRMC,082301.000,A,3415.695,N,08405.327,W,000.0,216.7,111222,000.0,W*67
$GPGGA,195542.000,3415.640,N,08405.368,W,1,12,1.0,0.0,M,0.0,M,,*77
$GPGSA,A,3,01,02,03,04,05,06,07,08,09,10,11,12,1.0,1.0,1.0*30
$GPRMC,195542.000,A,3415.640,N,08405.368,W,000.0,213.3,111222,000.0,W*63
$GPGGA,072823.000,3415.596,N,08405.397,W,1,12,1.0,0.0,M,0.0,M,,*7D
$GPGSA,A,3,01,02,03,04,05,06,07,08,09,10,11,12,1.0,1.0,1.0*30
$GPRMC,072823.000,A,3415.596,N,08405.397,W,000.0,210.0,121222,000.0,W*6A
$GPGGA,190104.000,3415.558,N,08405.419,W,1,12,1.0,0.0,M,0.0,M,,*7F
$GPGSA,A,3,01,02,03,04,05,06,07,08,09,10,11,12,1.0,1.0,1.0*30
$GPRMC,190104.000,A,3415.558,N,08405.419,W,000.0,207.5,121222,000.0,W*6B
$GPGGA,063345.000,3415.512,N,08405.443,W,1,12,1.0,0.0,M,0.0,M,,*74
$GPGSA,A,3,01,02,03,04,05,06,07,08,09,10,11,12,1.0,1.0,1.0*30
$GPRMC,063345.000,A,3415.512,N,08405.443,W,000.0,203.5,131222,000.0,W*65
$GPGGA,180626.000,3415.450,N,08405.470,W,1,12,1.0,0.0,M,0.0,M,,*7F
$GPGSA,A,3,01,02,03,04,05,06,07,08,09,10,11,12,1.0,1.0,1.0*30
$GPRMC,180626.000,A,3415.450,N,08405.470,W,000.1,200.8,131222,000.0,W*61
$GPGGA,053907.000,3414.810,N,08405.714,W,1,12,1.0,0.0,M,0.0,M,,*74
$GPGSA,A,3,01,02,03,04,05,06,07,08,09,10,11,12,1.0,1.0,1.0*30
$GPRMC,053907.000,A,3414.810,N,08405.714,W,000.0,200.9,141222,000.0,W*6D
$GPGGA,171148.000,3414.446,N,08405.853,W,1,12,1.0,0.0,M,0.0,M,,*75
$GPGSA,A,3,01,02,03,04,05,06,07,08,09,10,11,12,1.0,1.0,1.0*30
$GPRMC,171148.000,A,3414.446,N,08405.853,W,000.0,201.0,141222,000.0,W*64
$GPGGA,044429.000,3414.295,N,08405.911,W,1,12,1.0,0.0,M,0.0,M,,*7F
$GPGSA,A,3,01,02,03,04,05,06,07,08,09,10,11,12,1.0,1.0,1.0*30
$GPRMC,044429.000,A,3414.295,N,08405.911,W,000.0,200.7,151222,000.0,W*69
$GPGGA,161710.000,3414.147,N,08405.967,W,1,12,1.0,0.0,M,0.0,M,,*7D
$GPGSA,A,3,01,02,03,04,05,06,07,08,09,10,11,12,1.0,1.0,1.0*30
$GPRMC,161710.000,A,3414.147,N,08405.967,W,000.0,200.8,151222,000.0,W*64
$GPGGA,034951.000,3414.029,N,08406.012,W,1,12,1.0,0.0,M,0.0,M,,*76
$GPGSA,A,3,01,02,03,04,05,06,07,08,09,10,11,12,1.0,1.0,1.0*30
$GPRMC,034951.000,A,3414.029,N,08406.012,W,000.0,200.9,161222,000.0,W*6D
$GPGGA,152232.000,3413.815,N,08406.094,W,1,12,1.0,0.0,M,0.0,M,,*77
$GPGSA,A,3,01,02,03,04,05,06,07,08,09,10,11,12,1.0,1.0,1.0*30
$GPRMC,152232.000,A,3413.815,N,08406.094,W,000.0,205.1,161222,000.0,W*61
$GPGGA,025513.000,3413.766,N,08406.117,W,1,12,1.0,0.0,M,0.0,M,,*73
$GPGSA,A,3,01,02,03,04,05,06,07,08,09,10,11,12,1.0,1.0,1.0*30
$GPRMC,025513.000,A,3413.766,N,08406.117,W,000.0,208.2,171222,000.0,W*6A
$GPGGA,142754.000,3413.725,N,08406.139,W,1,12,1.0,0.0,M,0.0,M,,*79
$GPGSA,A,3,01,02,03,04,05,06,07,08,09,10,11,12,1.0,1.0,1.0*30
$GPRMC,142754.000,A,3413.725,N,08406.139,W,000.0,210.9,171222,000.0,W*62
$GPGGA,020035.000,3413.685,N,08406.163,W,1,12,1.0,0.0,M,0.0,M,,*78
$GPGSA,A,3,01,02,03,04,05,06,07,08,09,10,11,12,1.0,1.0,1.0*30
$GPRMC,020035.000,A,3413.685,N,08406.163,W,000.0,213.6,181222,000.0,W*60
$GPGGA,133316.000,3413.652,N,08406.185,W,1,12,1.0,0.0,M,0.0,M,,*7B
$GPGSA,A,3,01,02,03,04,05,06,07,08,09,10,11,12,1.0,1.0,1.0*30
$GPRMC,133316.000,A,3413.652,N,08406.185,W,000.0,216.0,181222,000.0,W*60
$GPGGA,010557.000,3413.483,N,08406.308,W,1,12,1.0,0.0,M,0.0,M,,*71
$GPGSA,A,3,01,02,03,04,05,06,07,08,09,10,11,12,1.0,1.0,1.0*30
$GPRMC,010557.000,A,3413.483,N,08406.308,W,000.0,217.9,191222,000.0,W*63
$GPGGA,123838.000,3413.442,N,08406.340,W,1,12,1.0,0.0,M,0.0,M,,*75
$GPGSA,A,3,01,02,03,04,05,06,07,08,09,10,11,12,1.0,1.0,1.0*30
$GPRMC,123838.000,A,3413.442,N,08406.340,W,000.0,219.8,191222,000.0,W*68
$GPGGA,001119.000,3413.418,N,08406.360,W,1,12,1.0,0.0,M,0.0,M,,*73
$GPGSA,A,3,01,02,03,04,05,06,07,08,09,10,11,12,1.0,1.0,1.0*30
$GPRMC,001119.000,A,3413.418,N,08406.360,W,000.0,222.2,201222,000.0,W*66
$GPGGA,114400.000,3413.396,N,08406.380,W,1,12,1.0,0.0,M,0.0,M,,*74
$GPGSA,A,3,01,02,03,04,05,06,07,08,09,10,11,12,1.0,1.0,1.0*30
$GPRMC,114400.000,A,3413.396,N,08406.380,W,000.0,227.2,201222,000.0,W*64
$GPGGA,231641.000,3413.371,N,08406.407,W,1,12,1.0,0.0,M,0.0,M,,*76
$GPGSA,A,3,01,02,03,04,05,06,07,08,09,10,11,12,1.0,1.0,1.0*30
$GPRMC,231641.000,A,3413.371,N,08406.407,W,000.0,229.6,201222,000.0,W*6C
$GPGGA,104922.000,3413.354,N,08406.427,W,1,12,1.0,0.0,M,0.0,M,,*7C
$GPGSA,A,3,01,02,03,04,05,06,07,08,09,10,11,12,1.0,1.0,1.0*30
$GPRMC,104922.000,A,3413.354,N,08406.427,W,000.0,231.4,211222,000.0,W*6C
$GPGGA,222203.000,3413.319,N,08406.471,W,1,12,1.0,0.0,M,0.0,M,,*79
$GPGSA,A,3,01,02,03,04,05,06,07,08,09,10,11,12,1.0,1.0,1.0*30
$GPRMC,222203.000,A,3413.319,N,08406.471,W,000.0,235.4,211222,000.0,W*6D
$GPGGA,095444.000,3413.253,N,08406.567,W,1,12,1.0,0.0,M,0.0,M,,*7B
$GPGSA,A,3,01,02,03,04,05,06,07,08,09,10,11,12,1.0,1.0,1.0*30
$GPRMC,095444.000,A,3413.253,N,08406.567,W,000.0,235.0,221222,000.0,W*68
$GPGGA,212725.000,3413.032,N,08406.883,W,1,12,1.0,0.0,M,0.0,M,,*70
$GPGSA,A,3,01,02,03,04,05,06,07,08,09,10,11,12,1.0,1.0,1.0*30
$GPRMC,212725.000,A,3413.032,N,08406.883,W,000.0,235.1,221222,000.0,W*62
$GPGGA,090006.000,3412.819,N,08407.189,W,1,12,1.0,0.0,M,0.0,M,,*7C
$GPGSA,A,3,01,02,03,04,05,06,07,08,09,10,11,12,1.0,1.0,1.0*30
$GPRMC,090006.000,A,3412.819,N,08407.189,W,000.0,231.1,231222,000.0,W*6B
$GPGGA,203247.000,3412.790,N,08407.225,W,1,12,1.0,0.0,M,0.0,M,,*78
$GPGSA,A,3,01,02,03,04,05,06,07,08,09,10,11,12,1.0,1.0,1.0*30
$GPRMC,203247.000,A,3412.790,N,08407.225,W,000.0,226.9,231222,000.0,W*61
$GPGGA,080528.000,3412.776,N,08407.240,W,1,12,1.0,0.0,M,0.0,M,,*74
$GPGSA,A,3,01,02,03,04,05,06,07,08,09,10,11,12,1.0,1.0,1.0*30
$GPRMC,080528.000,A,3412.776,N,08407.240,W,000.0,225.8,241222,000.0,W*68
$GPGGA,193809.000,3412.741,N,08407.276,W,1,12,1.0,0.0,M,0.0,M,,*78
$GPGSA,A,3,01,02,03,04,05,06,07,08,09,10,11,12,1.0,1.0,1.0*30
$GPRMC,193809.000,A,3412.741,N,08407.276,W,000.0,219.8,241222,000.0,W*6B
$GPGGA,071050.000,3412.705,N,08407.306,W,1,12,1.0,0.0,M,0.0,M,,*77
$GPGSA,A,3,01,02,03,04,05,06,07,08,09,10,11,12,1.0,1.0,1.0*30
$GPRMC,071050.000,A,3412.705,N,08407.306,W,000.0,215.3,251222,000.0,W*62
$GPGGA,184331.000,3412.667,N,08407.333,W,1,12,1.0,0.0,M,0.0,M,,*7B
$GPGSA,A,3,01,02,03,04,05,06,07,08,09,10,11,12,1.0,1.0,1.0*30
$GPRMC,184331.000,A,3412.667,N,08407.333,W,000.0,209.7,251222,000.0,W*67
$GPGGA,061612.000,3412.639,N,08407.349,W,1,12,1.0,0.0,M,0.0,M,,*73
$GPGSA,A,3,01,02,03,04,05,06,07,08,09,10,11,12,1.0,1.0,1.0*30
$GPRMC,061612.000,A,3412.639,N,08407.349,W,000.0,209.7,261222,000.0,W*6C
$GPGGA,174853.000,3412.618,N,08407.361,W,1,12,1.0,0.0,M,0.0,M,,*74
$GPGSA,A,3,01,02,03,04,05,06,07,08,09,10,11,12,1.0,1.0,1.0*30
$GPRMC,174853.000,A,3412.618,N,08407.361,W,000.0,203.8,261222,000.0,W*6E
$GPGGA,052134.000,3412.575,N,08407.380,W,1,12,1.0,0.0,M,0.0,M,,*7E
$GPGSA,A,3,01,02,03,04,05,06,07,08,09,10,11,12,1.0,1.0,1.0*30
$GPRMC,052134.000,A,3412.575,N,08407.380,W,000.0,198.9,271222,000.0,W*65
$GPGGA,165415.000,3412.540,N,08407.392,W,1,12,1.0,0.0,M,0.0,M,,*78
$GPGSA,A,3,01,02,03,04,05,06,07,08,09,10,11,12,1.0,1.0,1.0*30
$GPRMC,165415.000,A,3412.540,N,08407.392,W,000.0,194.8,271222,000.0,W*6E
$GPGGA,042656.000,3412.185,N,08407.486,W,1,12,1.0,0.0,M,0.0,M,,*76
$GPGSA,A,3,01,02,03,04,05,06,07,08,09,10,11,12,1.0,1.0,1.0*30
$GPRMC,042656.000,A,3412.185,N,08407.486,W,000.0,198.0,281222,000.0,W*6B
$GPGGA,155937.000,3412.139,N,08407.501,W,1,12,1.0,0.0,M,0.0,M,,*70
$GPGSA,A,3,01,02,03,04,05,06,07,08,09,10,11,12,1.0,1.0,1.0*30
$GPRMC,155937.000,A,3412.139,N,08407.501,W,000.0,203.2,281222,000.0,W*6E
$GPGGA,033218.000,3412.104,N,08407.516,W,1,12,1.0,0.0,M,0.0,M,,*7F
$GPGSA,A,3,01,02,03,04,05,06,07,08,09,10,11,12,1.0,1.0,1.0*30
$GPRMC,033218.000,A,3412.104,N,08407.516,W,000.0,205.7,291222,000.0,W*63
$GPGGA,150459.000,3412.075,N,08407.530,W,1,12,1.0,0.0,M,0.0,M,,*7B
$GPGSA,A,3,01,02,03,04,05,06,07,08,09,10,11,12,1.0,1.0,1.0*30
$GPRMC,150459.000,A,3412.075,N,08407.530,W,000.0,210.7,291222,000.0,W*63
$GPGGA,023740.000,3412.033,N,08407.555,W,1,12,1.0,0.0,M,0.0,M,,*74
$GPGSA,A,3,01,02,03,04,05,06,07,08,09,10,11,12,1.0,1.0,1.0*30
$GPRMC,023740.000,A,3412.033,N,08407.555,W,000.0,214.9,301222,000.0,W*6E
$GPGGA,141021.000,3412.003,N,08407.576,W,1,12,1.0,0.0,M,0.0,M,,*73
$GPGSA,A,3,01,02,03,04,05,06,07,08,09,10,11,12,1.0,1.0,1.0*30
$GPRMC,141021.000,A,3412.003,N,08407.576,W,000.0,218.4,301222,000.0,W*68
$GPGGA,014302.000,3411.974,N,08407.599,W,1,12,1.0,0.0,M,0.0,M,,*7B
$GPGSA,A,3,01,02,03,04,05,06,07,08,09,10,11,12,1.0,1.0,1.0*30
$GPRMC,014302.000,A,3411.974,N,08407.599,W,000.0,221.5,311222,000.0,W*6A
$GPGGA,131543.000,3411.894,N,08407.670,W,1,12,1.0,0.0,M,0.0,M,,*75
$GPGSA,A,3,01,02,03,04,05,06,07,08,09,10,11,12,1.0,1.0,1.0*30
$GPRMC,131543.000,A,3411.894,N,08407.670,W,000.0,221.9,311222,000.0,W*68
$GPGGA,004824.000,3411.806,N,08407.749,W,1,12,1.0,0.0,M,0.0,M,,*7E
$GPGSA,A,3,01,02,03,04,05,06,07,08,09,10,11,12,1.0,1.0,1.0*30
$GPRMC,004824.000,A,3411.806,N,08407.749,W,000.0,221.7,010123,000.0,W*6D
$GPGGA,122105.000,3411.564,N,08407.965,W,1,12,1.0,0.0,M,0.0,M,,*78
$GPGSA,A,3,01,02,03,04,05,06,07,08,09,10,11,12,1.0,1.0,1.0*30
$GPRMC,122105.000,A,3411.564,N,08407.965,W,000.0,219.5,010123,000.0,W*62
$GPGGA,235346.000,3411.524,N,08407.998,W,1,12,1.0,0.0,M,0.0,M,,*7E
$GPGSA,A,3,01,02,03,04,05,06,07,08,09,10,11,12,1.0,1.0,1.0*30
$GPRMC,235346.000,A,3411.524,N,08407.998,W,000.0,218.9,010123,000.0,W*69
$GPGGA,112627.000,3411.482,N,08408.032,W,1,12,1.0,0.0,M,0.0,M,,*71
$GPGSA,A,3,01,02,03,04,05,06,07,08,09,10,11,12,1.0,1.0,1.0*30
$GPRMC,112627.000,A,3411.482,N,08408.032,W,000.0,217.0,020123,000.0,W*63
$GPGGA,225908.000,3411.413,N,08408.084,W,1,12,1.0,0.0,M,0.0,M,,*71
$GPGSA,A,3,01,02,03,04,05,06,07,08,09,10,11,12,1.0,1.0,1.0*30
$GPRMC,225908.000,A,3411.413,N,08408.084,W,000.0,214.1,020123,000.0,W*61
$GPGGA,103149.000,3411.360,N,08408.120,W,1,12,1.0,0.0,M,0.0,M,,*77
$GPGSA,A,3,01,02,03,04,05,06,07,08,09,10,11,12,1.0,1.0,1.0*30
$GPRMC,103149.000,A,3411.360,N,08408.120,W,000.0,212.7,030123,000.0,W*66
$GPGGA,220430.000,3411.287,N,08408.167,W,1,12,1.0,0.0,M,0.0,M,,*75
$GPGSA,A,3,01,02,03,04,05,06,07,08,09,10,11,12,1.0,1.0,1.0*30
$GPRMC,220430.000,A,3411.287,N,08408.167,W,000.0,219.2,030123,000.0,W*6A
$GPGGA,093711.000,3411.227,N,08408.216,W,1,12,1.0,0.0,M,0.0,M,,*70
$GPGSA,A,3,01,02,03,04,05,06,07,08,09,10,11,12,1.0,1.0,1.0*30
$GPRMC,093711.000,A,3411.227,N,08408.216,W,000.0,216.4,040123,000.0,W*61
$GPGGA,210952.000,3411.204,N,08408.233,W,1,12,1.0,0.0,M,0.0,M,,*76
$GPGSA,A,3,01,02,03,04,05,06,07,08,09,10,11,12,1.0,1.0,1.0*30
$GPRMC,210952.000,A,3411.204,N,08408.233,W,000.0,224.9,040123,000.0,W*6B
$GPGGA,084233.000,3411.194,N,08408.243,W,1,12,1.0,0.0,M,0.0,M,,*78
$GPGSA,A,3,01,02,03,04,05,06,07,08,09,10,11,12,1.0,1.0,1.0*30
$GPRMC,084233.000,A,3411.194,N,08408.243,W,000.0,227.4,050123,000.0,W*6A
$GPGGA,201514.000,3411.172,N,08408.267,W,1,12,1.0,0.0,M,0.0,M,,*7B
$GPGSA,A,3,01,02,03,04,05,06,07,08,09,10,11,12,1.0,1.0,1.0*30
$GPRMC,201514.000,A,3411.172,N,08408.267,W,000.0,234.9,050123,000.0,W*66
$GPGGA,074755.000,3411.106,N,08408.361,W,1,12,1.0,0.0,M,0.0,M,,*78
$GPGSA,A,3,01,02,03,04,05,06,07,08,09,10,11,12,1.0,1.0,1.0*30
$GPRMC,074755.000,A,3411.106,N,08408.361,W,000.0,229.3,060123,000.0,W*60
$GPGGA,192036.000,3411.094,N,08408.375,W,1,12,1.0,0.0,M,0.0,M,,*7C
$GPGSA,A,3,01,02,03,04,05,06,07,08,09,10,11,12,1.0,1.0,1.0*30
$GPRMC,192036.000,A,3411.094,N,08408.375,W,000.0,216.8,060123,000.0,W*63
$GPGGA,065317.000,3411.090,N,08408.378,W,1,12,1.0,0.0,M,0.0,M,,*7C
$GPGSA,A,3,01,02,03,04,05,06,07,08,09,10,11,12,1.0,1.0,1.0*30
$GPRMC,065317.000,A,3411.090,N,08408.378,W,000.0,195.9,070123,000.0,W*6B
$GPGGA,182558.000,3411.083,N,08408.380,W,1,12,1.0,0.0,M,0.0,M,,*7C
$GPGSA,A,3,01,02,03,04,05,06,07,08,09,10,11,12,1.0,1.0,1.0*30
$GPRMC,182558.000,A,3411.083,N,08408.380,W,000.0,180.0,070123,000.0,W*66
$GPGGA,055839.000,3411.079,N,08408.380,W,1,12,1.0,0.0,M,0.0,M,,*78
$GPGSA,A,3,01,02,03,04,05,06,07,08,09,10,11,12,1.0,1.0,1.0*30
$GPRMC,055839.000,A,3411.079,N,08408.380,W,000.0,160.4,080123,000.0,W*67
$GPGGA,173120.000,3411.065,N,08408.375,W,1,12,1.0,0.0,M,0.0,M,,*7B
$GPGSA,A,3,01,02,03,04,05,06,07,08,09,10,11,12,1.0,1.0,1.0*30
$GPRMC,173120.000,A,3411.065,N,08408.375,W,000.0,128.9,080123,000.0,W*65
$GPGGA,050401.000,3411.007,N,08408.303,W,1,12,1.0,0.0,M,0.0,M,,*78
$GPGSA,A,3,01,02,03,04,05,06,07,08,09,10,11,12,1.0,1.0,1.0*30
$GPRMC,050401.000,A,3411.007,N,08408.303,W,000.0,128.3,090123,000.0,W*6D
$GPGGA,163642.000,3410.914,N,08408.185,W,1,12,1.0,0.0,M,0.0,M,,*7A
$GPGSA,A,3,01,02,03,04,05,06,07,08,09,10,11,12,1.0,1.0,1.0*30
$GPRMC,163642.000,A,3410.914,N,08408.185,W,000.0,126.7,090123,000.0,W*65
$GPGGA,040923.000,3410.879,N,08408.138,W,1,12,1.0,0.0,M,0.0,M,,*7E
$GPGSA,A,3,01,02,03,04,05,06,07,08,09,10,11,12,1.0,1.0,1.0*30
$GPRMC,040923.000,A,3410.879,N,08408.138,W,000.0,126.8,100123,000.0,W*66
$GPGGA,154204.000,3410.799,N,08408.031,W,1,12,1.0,0.0,M,0.0,M,,*7D
$GPGSA,A,3,01,02,03,04,05,06,07,08,09,10,11,12,1.0,1.0,1.0*30
$GPRMC,154204.000,A,3410.799,N,08408.031,W,000.0,129.3,100123,000.0,W*61
$GPGGA,031445.000,3410.768,N,08407.993,W,1,12,1.0,0.0,M,0.0,M,,*7C
$GPGSA,A,3,01,02,03,04,05,06,07,08,09,10,11,12,1.0,1.0,1.0*30
$GPRMC,031445.000,A,3410.768,N,08407.993,W,000.0,129.4,110123,000.0,W*66
$GPGGA,144726.000,3410.713,N,08407.926,W,1,12,1.0,0.0,M,0.0,M,,*7B
$GPGSA,A,3,01,02,03,04,05,06,07,08,09,10,11,12,1.0,1.0,1.0*30
$GPRMC,144726.000,A,3410.713,N,08407.926,W,000.0,131.6,110123,000.0,W*6A
$GPGGA,022007.000,3410.643,N,08407.847,W,1,12,1.0,0.0,M,0.0,M,,*7C
$GPGSA,A,3,01,02,03,04,05,06,07,08,09,10,11,12,1.0,1.0,1.0*30
$GPRMC,022007.000,A,3410.643,N,08407.847,W,000.0,132.0,120123,000.0,W*6B
$GPGGA,135248.000,3410.634,N,08407.837,W,1,12,1.0,0.0,M,0.0,M,,*75
$GPGSA,A,3,01,02,03,04,05,06,07,08,09,10,11,12,1.0,1.0,1.0*30
$GPRMC,135248.000,A,3410.634,N,08407.837,W,000.0,137.8,120123,000.0,W*6F
$GPGGA,012529.000,3410.623,N,08407.827,W,1,12,1.0,0.0,M,0.0,M,,*76
$GPGSA,A,3,01,02,03,04,05,06,07,08,09,10,11,12,1.0,1.0,1.0*30
$GPRMC,012529.000,A,3410.623,N,08407.827,W,000.0,132.7,130123,000.0,W*67
$GPGGA,125810.000,3410.552,N,08407.750,W,1,12,1.0,0.0,M,0.0,M,,*7E
$GPGSA,A,3,01,02,03,04,05,06,07,08,09,10,11,12,1.0,1.0,1.0*30
$GPRMC,125810.000,A,3410.552,N,08407.750,W,000.0,137.4,130123,000.0,W*69
$GPGGA,003051.000,3410.476,N,08407.680,W,1,12,1.0,0.0,M,0.0,M,,*7D
$GPGSA,A,3,01,02,03,04,05,06,07,08,09,10,11,12,1.0,1.0,1.0*30
$GPRMC,003051.000,A,3410.476,N,08407.680,W,000.0,141.0,140123,000.0,W*68
$GPGGA,120332.000,3410.428,N,08407.641,W,1,12,1.0,0.0,M,0.0,M,,*7D
$GPGSA,A,3,01,02,03,04,05,06,07,08,09,10,11,12,1.0,1.0,1.0*30
$GPRMC,120332.000,A,3410.428,N,08407.641,W,000.0,138.0,140123,000.0,W*66
$GPGGA,233613.000,3410.377,N,08407.595,W,1,12,1.0,0.0,M,0.0,M,,*7D
$GPGSA,A,3,01,02,03,04,05,06,07,08,09,10,11,12,1.0,1.0,1.0*30
$GPRMC,233613.000,A,3410.377,N,08407.595,W,000.0,138.9,140123,000.0,W*6F
$GPGGA,110854.000,3410.314,N,08407.540,W,1,12,1.0,0.0,M,0.0,M,,*7F
$GPGSA,A,3,01,02,03,04,05,06,07,08,09,10,11,12,1.0,1.0,1.0*30
$GPRMC,110854.000,A,3410.314,N,08407.540,W,000.0,141.6,150123,000.0,W*6D
$GPGGA,224135.000,3410.164,N,08407.421,W,1,12,1.0,0.0,M,0.0,M,,*76
$GPGSA,A,3,01,02,03,04,05,06,07,08,09,10,11,12,1.0,1.0,1.0*30
$GPRMC,224135.000,A,3410.164,N,08407.421,W,000.0,143.9,150123,000.0,W*69
